stop_id,stop_name,stop_lat,stop_lon
1,albinia,42.502165,11.21134
2,alberobello,,
3,albenga,44.04722,8.221663
4,albate-trecallo,45.777391,9.095752
5,albaredo,45.670265,12.015104
6,albanova,40.996117,14.128596
7,albano s.alessandro,45.682744,9.768027
8,albano laziale,41.72632,12.658056
9,albano di lucania,40.574707,16.021247
10,albairate-vermezzo,45.4043642,8.9575985
11,albacina,43.345686,12.986501
12,alba adriatica nereto controguerra,42.83438,13.91733
13,alba,44.697713,8.030629
14,alassio,44.007889,8.17112
15,alano fener valdobbiadene,45.90229,11.944546
16,avio,45.733892,10.955842
17,avigliano lucania,40.714667,15.785619
18,albergo,43.3861503,11.7521095
19,avigliana,45.085276,7.401096
20,aviano,46.064362,12.590686
21,avezzano,42.039495,13.426446
22,aversa ippodromo,40.9606,14.2108
23,aversa,40.9741,14.2137
24,aversa,40.973323,14.218578
25,avella,40.9552,14.6023
26,aulla lunigiana,44.210555,9.970015
27,augusta,37.24334,15.218628
28,attigliano,42.518054,12.294761
29,asti,44.89479,8.208112
30,assisi,43.058921,12.585304
31,assemini,39.287603,8.997936
32,asola,45.220454,10.402313
33,ascoli satriano,41.219859,15.547828
34,ascoli piceno,42.855474,13.587939
35,asciano monte oliveto maggiore,43.231706,11.563621
36,avellino,40.921612,14.820586
37,asciano,43.235245,11.579237
38,ascea,40.140955,15.172626
39,arzergrande,45.2748,12.03967
40,arth goldau,47.0490903,8.5497699
41,artegna,46.23115,13.162328
42,atena,40.456676,15.536094
43,arsoli,42.045852,13.013064
44,arquata scrivia,44.692533,8.885342
45,arqua`,45.006465,11.748518
46,arpino,41.648296,13.59959
47,arpaia-airola-s.agata dei goti,41.0399972,14.5549178
48,arona,45.755392,8.559075
49,ariano irpino,41.181883,15.117508
50,argine palasport,40.8627,14.338
51,argenta,44.616867,11.841267
52,arezzo pescaiola,43.4631806,11.8583495
53,arezzo,43.461725,11.874189
54,arenzano,44.403089,8.678322
55,arena po,45.082065,9.360394
56,ardore,38.175698,16.207311
57,ardenno masino,46.16198,9.651374
58,arcore,45.623493,9.322798
59,arcone,40.6713441,8.3970447
60,arcola,44.118651,9.914649
61,arco felice,40.8329,14.1014
62,arcisate,45.858579,8.86241
63,arcene,45.57469,9.60537
64,arce,41.583695,13.571848
65,arbostella,40.677263,15.623814
66,arbia,43.294393,11.406225
67,aranceto,,
68,aragona caldare,37.381097,13.636837
69,aprilia,41.592386,12.639126
70,aprigliano,,
71,appiano,41.909342,12.43838
72,aosta,45.73407,7.322424
73,anzola,44.5510644,11.1964325
74,anzio colonia,41.459893,12.617442
75,anzio,41.4532,12.633205
76,anzano del parco,45.764965,9.202676
77,antrodoco centro,42.409844,13.07096
78,antrodoco borgo velino,42.415393,13.076193
79,antignano,43.492482,10.328827
80,annone veneto,45.774904,12.680334
81,anguillara,42.068133,12.304978
82,angri,40.746404,14.575366
83,anfiteatro,41.0862003,14.2447818
84,andria centrale,41.232293,16.301485
85,andrano-castiglione,,
86,andora,,
87,anconetta,45.565249,11.567865
88,ancona torrette,43.609936,13.455777
89,ancona,43.607734,13.497665
90,anagni-fiuggi,41.71037,13.09597
91,amorosi melizzano,41.173509,14.470759
92,ambivere mapello,45.722163,9.550444
93,amantea,39.134353,16.068448
94,alvignano,41.24698,14.33804
95,alviano,42.591917,12.259583
96,altopascio,43.817418,10.672754
97,altavilla tavernelle,45.511805,11.454702
98,altavilla milicia,38.048392,13.554421
99,altare,44.336169,8.332753
100,alpignano,45.091077,7.523745
101,allerona-castel viscardo,42.78502,12.035236
102,alife,41.32352,14.33927
103,alice belcolle,44.722636,8.440076
104,ali` terme,38.013952,15.435184
105,alghero,40.5749594,8.3221672
106,alfonsine,44.512364,12.039155
107,alezio,,
108,alessano corsano,,
109,alessandria,44.909091,8.606498
110,alcantara,37.82145,15.251158
111,alcamo diramazione,37.978894,12.915916
112,altavilla irpina,41.015265,14.782833
113,albuzzano,45.172504,9.261624
114,altamura,40.837666,16.551739
115,albonese,45.297785,8.714601
116,albizzate solbiate arno,45.724117,8.80621
117,albisola,44.33469,8.512092
118,alanno,42.287185,14.019595
119,ala,45.760087,10.996775
120,airuno,45.754086,9.422066
121,alfedena-scontrone,41.738222,14.044662
122,airole,43.870494,7.552757
123,airasca,44.928093,7.483536
124,aielli,42.06212,13.58125
125,agropoli castellabate,40.351521,15.002053
126,agrigento centrale,37.309051,13.584412
127,agrigento bassa,37.319148,13.588094
128,agnano,40.8178,14.1762
129,agliano castelnuovo calcea,44.786108,8.267723
130,africo nuovo,38.053759,16.144283
131,adria,45.06058,12.054228
132,adrano nord,,
133,adrano naviccia,,
134,adrano centro,,
135,adrano cappellone,,
136,adelfia,,
137,adami,,
138,acqui terme,44.67407,8.474482
139,acquedolci s.fratello,38.058459,14.587597
140,acquaviva delle fonti,40.892806,16.839826
141,acquappesa,39.48648,15.955992
142,acquanegra cremonese,45.172102,9.888456
143,acquamela,40.7334121,14.772195
144,acquafredda,40.035527,15.671846
145,acqua acetosa,41.931445,12.48736
146,acqua acetosa,41.794294,12.616449
147,acireale,37.600514,15.163697
148,acerra,40.939066,14.372243
149,acciano,42.175994,13.711345
150,abbiategrasso,45.400631,8.921305
151,abbasanta,40.128801,8.817733
152,abbadia lariana,45.895864,9.335175
153,abano terme,45.355199,11.811533
154,acquaviva casteltermini,,
155,buttrio,46.012664,13.329039
156,cà dell'orbo,,
157,duomo via vernieri,40.68147,14.76222
158,europa,37.5151565,15.1085016
159,fuscaldo,39.409692,16.011475
160,gurrida,,
161,hone bard,45.613918,7.741345
162,ivrea,45.461542,7.876348
163,kufstein,47.5829464,12.1655717
164,ozzano taro,44.712268,10.141022
165,putignano in monte laureto,,
166,ruvo di puglia,41.114939,16.479136
167,russi,44.379011,12.03164
168,rufina,43.822236,11.485072
169,rudalza,40.994082,9.531214
170,rubiera,44.65618,10.780252
171,rovigo,45.076993,11.780892
172,roviano,42.026476,12.991119
173,rovereto,45.890985,11.033518
174,muzzana del turgnano,45.816817,13.132376
175,roverbella,45.252645,10.796795
176,rovato,45.55193,10.000924
177,rovasenda,45.537291,8.317376
178,rottofreno,45.060546,9.549127
179,rotondi-paolisi,41.03564,14.59313
180,rosta,45.078397,7.463963
181,rossiglione,44.566955,8.668051
182,rossano veneto,45.702039,11.784812
183,rossano,39.603005,16.640859
184,rosolina,45.075548,12.239663
185,rosignano,43.387899,10.438041
186,roseto degli abruzzi,42.677852,14.01535
187,rosenheim,47.8500255,12.1193527
188,rosarno,38.488593,15.970149
189,rosa`,45.72054,11.775799
190,ronta,44.009432,11.434125
191,ronco scrivia,44.614537,8.949421
192,ronchi dei legionari nord,45.830285,13.505962
193,roncegno bagni-marter,46.03618,11.398818
194,rometta messinese,38.228455,15.405894
195,romanore,45.063834,10.750997
196,romano,45.523839,9.753402
197,romagnano-vietri-salvitelle,40.610041,15.447651
198,roma tuscolana,41.879384,12.523505
199,roma trastevere,41.872279,12.466162
200,roma tiburtina,41.910903,12.530749
201,roma termini,41.900636,12.502026
202,roma s.pietro,41.896143,12.454497
203,roma s.filippo neri,41.950262,12.412414
204,roma prenestina,41.897571,12.545803
205,roma ostiense,41.87265,12.483917
206,ronciglione,42.282499,12.219437
207,roma nomentana linea lenta,41.932935,12.523628
208,roma monte mario,41.939088,12.421732
209,roma balduina,41.9194198,12.4366899
210,roma aurelia,41.88344,12.395271
211,rolo novi fabbrico,44.886561,10.867882
212,rogliano serra,,
213,rogliano,,
214,rodda quadda,40.7594,8.5391632
215,rodallo,45.278714,7.878025
216,rocchetta tanaro cerro,44.875574,8.351402
217,rocchetta s.antonio-lacedonia,41.1518,15.53295
218,rocchetta cairo,44.427477,8.295356
219,roccella jonica,38.322043,16.406917
220,roccavivi,41.81796,13.54493
221,roccavione,44.314445,7.485361
222,roccastrada,42.957631,11.192942
223,roccasecca,41.526377,13.645814
224,roccarainola,40.9664,14.5601
225,roccapalumba-alia,37.793751,13.673628
226,roccalumera mandanici,37.972946,15.391411
227,rocca ravindola,41.521035,14.122965
228,rocca di fondi,42.39799,13.095825
229,rocca di corno,42.388164,13.143939
230,rocca d`evandro,41.438861,13.911338
231,robilante,44.296496,7.510906
232,robecco-pontevico,45.266224,10.078593
233,robbio,45.293542,8.597051
234,riva trigoso,44.26391,9.429277
235,riposto,,
236,roccaraso,41.850833,14.079292
237,ripafratta,43.821711,10.415733
238,ripabottoni s.elia,41.669666,14.844353
239,rionero atella ripacandita,40.922066,15.678699
240,rione trieste,40.8703,14.4613
241,rione traiano,40.8449,14.1942
242,riomaggiore,44.105203,9.729105
243,riola,44.229851,11.053592
244,rio di pusteria/mÃhlbach,46.79712,11.670028
245,ringsheim,,
246,riminifiera,44.0706261,12.5240008
247,rimini viserba,44.088407,12.533785
248,rivalta scrivia,44.854158,8.809846
249,rimini torre pedrera,44.106987,12.508755
250,rimini miramare,44.030388,12.618105
251,rimini,44.064176,12.574093
252,riparbella,43.339461,10.582184
253,rigoroso,44.670577,8.896487
254,rigoli,43.789681,10.419663
255,rignano sull`arno reggello,43.720834,11.452383
256,rignano,42.210807,12.479238
257,rieti,42.405918,12.862596
258,ridotti-collepiano,41.78968,13.57813
259,riccione,43.999218,12.658549
260,ricadi,38.630676,15.839848
261,riazzino,,
262,riardo,41.265177,14.124949
263,riano,42.102358,12.497875
264,rho fiera milano,45.5065028,9.1358693
265,rho,45.523813,9.043563
266,resana,45.634081,11.964251
267,repubblica,39.217223,9.1252334
268,renate-veduggio,45.728304,9.279834
269,remedello sotto,45.257477,10.388402
270,remedello sopra,45.27848,10.379211
271,remanzacco,,
272,reggio santo stefano,,
273,reggio emilia via fanti,,
274,reggio emilia,44.697793,10.643093
275,reggio di calabria s.gregorio,38.061274,15.652053
276,reggio di calabria s.caterina,38.1263,15.6526
277,reggio di calabria pellaro,38.02561,15.650064
278,reggio di calabria omeca,38.0822,15.6342
279,reggio di calabria gallico,38.165235,15.650716
280,reggio di calabria catona,38.185806,15.641205
281,reggio di calabria bocale,38.00569,15.6386
282,reggio di calabria archi,38.15068,15.6589
283,reggio calabria pentimele,38.139406,15.658175
284,reggio calabria lido,38.117668,15.649171
285,reggio calabria centrale,38.103884,15.635844
286,reggio calabria aeroporto,38.073039,15.642301
287,redentore,39.258992,9.1379415
288,recco,44.361215,9.146788
289,recale,41.06235,14.30323
290,ravenna,44.419155,12.208404
291,rastignano,44.443592,11.357617
292,rapolano terme,43.283331,11.602504
293,rapallo,44.351398,9.231282
294,randazzo,,
295,rakek,,
296,raiano,42.097931,13.80908
297,ragusa,36.91927,14.725677
298,racconigi,44.771179,7.685681
299,racalmuto,37.406065,13.72752
300,racale-alliste,,
301,quiliano vado,44.279933,8.435562
302,quero vas,45.939306,11.920189
303,quercianella,43.454922,10.37255
304,quattro venti,41.880145,12.459731
305,quarto officina,40.8791,14.1256
306,quarto di marano,40.871086,14.122801
307,quarto d`altino,45.574576,12.365032
308,quarto centro,40.8801,14.1451
309,quarto,40.8803,14.1363
310,quartesana,44.8044,11.7399
311,putignano,,
312,punta raisi,38.188892,13.110059
313,punta moro,40.591323,8.34344
314,priverno fossanova,41.421853,13.186406
315,priolo melilli,37.157951,15.197038
316,primolano,45.965315,11.700899
317,prima porta,41.999988,12.493107
318,presicce-acquarica,,
319,premosello chiovenda,46.002188,8.326649
320,pregnana milanese,45.511868,9.003943
321,preganziol,45.60367,12.23138
322,pratola ponte,40.9135,14.383
323,pratola peligna superiore,42.080415,13.87223
324,pratola peligna,42.102423,13.876349
325,puglia - ceciliano,43.4943007,11.8725526
326,prato sardo,40.3266822,9.2902341
327,prato porta al serraglio,43.884637,11.097385
328,prato centrale,43.878737,11.109252
329,prato borgonuovo,43.893216,11.076222
330,pratissolo,,
331,pratignone,43.849273,11.162008
332,prata camportaccio,46.3071,9.3952
333,prasco cremolino,44.648906,8.55001
334,praja ajeta tortora,39.900832,15.780628
335,pracchia,44.05479,10.90691
336,pozzuolo martesana,45.510567,9.459096
337,pozzuoli solfatara,40.827586,14.126163
338,pozzuoli,40.8249,14.1214
339,pozzano,40.6855,14.4553
340,povo,46.0675,11.14373
341,potenza superiore,40.64586,15.800966
342,potenza picena montelupone,43.36991,13.59265
343,prata pratola,40.988509,14.842666
344,potenza macchia romana,40.6518349,15.8023921
345,potenza centrale,40.629469,15.806808
346,posto comunicazione dolce`,45.601513,10.850588
347,postioma,45.715862,12.148248
348,possidente,40.781144,15.777104
349,portomaggiore,44.696699,11.799785
350,portogruaro caorle,45.781438,12.832375
351,pozzolo formigaro,44.797395,8.782521
352,porto valtravaglia,45.958219,8.674141
353,porto torres marittima,40.837914,8.397301
354,porto torres,40.833045,8.39642
355,porto s. giorgio fermo,43.17972,13.7975
356,porto s. elpidio,43.256855,13.760749
357,porto recanati,43.433726,13.661464
358,porto di vasto,42.167774,14.698057
359,porto d`ascoli,42.912792,13.896813
360,porto ceresio,45.903675,8.900357
361,portici- ercolano,40.809907,14.335809
362,portici via liberta',40.8168,14.3461
363,portici bellavista,40.822,14.3437
364,porta utzeri,40.725501,8.5554302
365,porretta  terme,44.155757,10.978039
366,porrena-strada-montemignaio,43.7446693,11.7463159
367,porcari,43.831263,10.619212
368,populonia,42.996412,10.540659
369,popoli vittorito,42.172354,13.826152
370,popolano,44.102323,11.649045
371,ponzano,42.286468,12.445568
372,pontremoli,44.371976,9.887795
373,pontida,45.730084,9.511632
374,ponticino,43.481446,11.71657
375,ponticelli,40.851,14.3333
376,ponti,44.629979,8.365262
377,pontetto,44.377309,9.07696
378,pontenure,45.001687,9.792103
379,pontelongo fermata,45.2486796,12.026675
380,pontelatone,41.1434,14.27237
381,pontelagoscuro,44.873216,11.612526
382,pontedera casciana terme,43.662145,10.628773
383,pontecurone,44.962014,8.929717
384,pontecchio marconi,44.42294,11.26919
385,pontecagnano,40.641033,14.870272
386,pontebba,46.508463,13.311357
387,ponte s.pietro,45.69916,9.584322
388,ponte s.marco - calcinato,45.473788,10.409018
389,ponte nelle alpi polpet,46.182328,12.277604
390,ponte in valtellina,46.162631,9.975895
391,pontelandolfo,41.29578,14.712051
392,ponte gardena/waidbruck,46.6012,11.53251
393,ponte galeria,41.818349,12.344733
394,ponte felcino,,
395,ponte di piave,45.719624,12.460683
396,ponte di nona,42.061563,13.581585
397,ponte della venturina,44.128589,10.990756
398,ponte d`adige/sigmundskron,46.485444,11.297719
399,ponte d`adda,45.184352,9.790737
400,ponte casalduni,41.214169,14.696458
401,ponte a tressa,43.250844,11.39617
402,ponte a moriano,43.908371,10.534264
403,ponte pattoli,,
404,ponte a elsa,43.694385,10.906008
405,pontassieve,43.773949,11.437904
406,ponte ginori,43.335594,10.740536
407,pont saint martin,45.589834,7.795024
408,pompei scavi villa dei misteri,40.7486,14.4813
409,pompei santuario,40.7511,14.5016
410,pompei,40.745918,14.501109
411,pomigliano d'arco,40.9147,14.393
412,pomezia - s.palomba,41.706171,12.573611
413,pollina,38.018,14.175943
414,pollenza,43.240933,13.367031
415,pollena trocchia,40.8598,14.3802
416,polignano a mare,40.990926,17.218676
417,policoro tursi,40.207304,16.688819
418,policlinico,39.26943,9.126466
419,policastro bussentino,40.076482,15.528438
420,polesella,44.961039,11.738498
421,poggiridenti-tresivio-piateda,46.166888,9.93382
422,poggioreale,40.8663,14.2927
423,poggiomarino,40.801,14.5401
424,poggio rusco,44.981859,11.124627
425,poggio renatico,44.767292,11.483701
426,poggio mirteto,42.242187,12.633043
427,poggio imperiale,41.805561,15.35707
428,poggio fidoni,42.395811,12.795429
429,poggio - careggine - vagli,44.148541,10.350626
430,polla,40.512921,15.497238
431,poggibonsi,43.468093,11.149455
432,poggiardo,,
433,pocapaglia,44.701066,7.892496
434,ploaghe,40.66132,8.728075
435,plaus,46.65844,11.041057
436,pizzo,38.726323,16.150615
437,poggiorsini,40.935221,16.266897
438,pizzighettone,45.181772,9.777133
439,pistoia ovest,43.93371,10.90401
440,pistoia,,
441,pistoia,43.926804,10.914624
442,pisticci,40.420848,16.552181
443,pisciotta palinuro,40.091539,15.243601
444,piscinola scampia,40.8929,14.2398
445,piscina di pinerolo,44.921744,7.425482
446,pisani,40.8654,14.1435
447,pisa san rossore,43.7222524,10.3877235
448,pisa centrale,43.70794,10.398183
449,piraineto,38.169148,13.14256
450,piove di sacco,45.2942171,12.0421742
451,pioppe di salvaro,44.310761,11.161785
452,pioppaino,40.7189,14.4916
453,piona,46.124696,9.350759
454,piombino dese,45.60944,12.00058
455,piombino binari mare,42.928931,10.54525
456,piombino,42.924854,10.530959
457,pioltello limito,45.486019,9.329319
458,pino,,
459,pineto atri,42.607736,14.069072
460,pinerolo olimpica,44.893325,7.349043
461,pinerolo,44.887673,7.337402
462,pinarolo po,45.073415,9.170273
463,pignataro maggiore,41.17384,14.160545
464,pieve vergonte,46.009783,8.276298
465,pieve saliceto,,
466,pieve ligure,44.372644,9.090975
467,pieve albignola,45.116248,8.959723
468,pietrasanta,43.95583,10.229731
469,pinzano,46.179217,12.950779
470,pietrarsa,40.822433,14.32058
471,pietragalla,40.753314,15.79211
472,pietrabissara,44.658637,8.926969
473,pietra ligure,44.145345,8.277403
474,piedimulera,46.024348,8.261237
475,piedimonte-villa santa lucia-aquino,41.4955715,13.7312046
476,piedimonte matese,41.35087,14.36823
477,piedimonte,,
478,picerno,40.640122,15.641612
479,picanello,,
480,piazzola,,
481,piazza marconi,40.7205,8.557996
482,piazza cavour,40.855248,14.255175
483,piazza amedeo,40.838506,14.232974
484,piazza al serchio,44.182515,10.296615
485,piave,40.8429,14.2065
486,pianzano,45.913397,12.388168
487,pianura,40.8561,14.1625
488,pianoro,44.380589,11.340675
489,pierantonio,,
490,piano tavola,,
491,piano orizzontale dei giovi,44.530912,8.9192
492,piano lago,,
493,piano d`orta bolognano,42.254455,13.951514
494,piano commezzadura ftm,46.31752,10.826359
495,piano,40.6349,14.4103
496,piane crati,,
497,piana di monte verna,41.16985,14.32832
498,piana bella montelibretti,42.105159,12.632938
499,piana,44.486383,8.308796
500,pian paradiso,42.262658,12.457657
501,pian di venola,44.332136,11.188609
502,pian del mugnone,43.813899,11.265994
503,piadena,45.127608,10.369962
504,piacenza,45.052238,9.70633
505,pettenasco,45.820498,8.406802
506,petrosino strasatti,37.725466,12.509434
507,pessione,44.965132,7.841321
508,pescocanale,41.9589,13.391624
509,pescina,42.037564,13.668981
510,pescia,43.886811,10.686074
511,peschiera del garda,45.438502,10.702509
512,pescara tribunale,42.4495951,14.2189848
513,pescara san marco,42.4443322,14.2070413
514,pescara porta nuova,42.458072,14.211663
515,pescara,42.467789,14.205066
516,pesaro,43.906014,12.904848
517,perugia universita',43.117092,12.356518
518,perugia silvestrini,43.0839597,12.3556024
519,perugia s.anna,43.1066728,12.3879332
520,perugia ponte s.giovanni,43.091801,12.438239
521,perugia piscille,43.0950957,12.4080302
522,perugia pallotta,43.0965197,12.3899884
523,perugia capitini,43.1038341,12.375578
524,perugia,43.103808,12.375567
525,peri,45.658402,10.900314
526,pergola,43.549653,12.832973
527,pergine,46.062482,11.232637
528,perca,46.7903787,11.9784235
529,perarolo di cadore,46.386277,12.352493
530,pellezzano,40.719928,14.777354
531,pederobba cavaso possagno,45.877299,11.965222
532,pedaso,43.094694,13.844906
533,pedace,,
534,pavona,41.723897,12.61116
535,pavia porta garibaldi,45.183996,9.167331
536,pavia,45.188843,9.144674
537,paulilatino,40.077373,8.775812
538,patti-san piero patti,38.146905,14.975331
539,paterno',,
540,passignano sul trasimeno,43.188324,12.133128
541,pascarosa,,
542,partinico,38.05857,13.108956
543,parona lomellina,45.280107,8.780315
544,parma,44.810203,10.32837
545,paris g.d.lyon,48.84472,2.37393
546,parghelia,38.683341,15.925042
547,parco piemonte,40.9112,14.3727
548,parco leonardo,41.79932,12.29543
549,parabita,,
550,parabiago,45.552441,8.946319
551,paola,39.359442,16.033093
552,pantiere di castelbellino,43.500941,13.183116
553,pantanella,41.779519,12.6345823
554,palombina,43.61701,13.429721
555,palombara-marcellina,41.9996497,12.7913109
556,palmiro togliatti,41.9032955,12.5742254
557,palmi,38.364914,15.84438
558,palmanova,45.906862,13.296461
559,palma s.gennaro,40.864149,14.540472
560,pallanzeno,46.043533,8.260645
561,palizzi,37.91881,15.986405
562,palidano,44.972228,10.777412
563,palestro,45.307274,8.534511
564,palermo notarbartolo,38.132261,13.341572
565,palermo centrale,38.109187,13.367515
566,palermo brancaccio,38.093141,13.392508
567,palazzolo vercellese,45.189004,8.232787
568,palazzolo sull`oglio,45.601486,9.896235
569,palazzo reale-orleans,38.10878,13.353962
570,palagiano chiatona,40.516998,17.059217
571,palagianello,40.610906,16.975202
572,paganica,42.334751,13.464317
573,pagani,40.74654,14.616996
574,paestum,40.421691,15.014915
575,paese castagnole,45.691182,12.182619
576,paese,45.669207,12.161677
577,padova,45.417846,11.880794
578,padiglione,41.513518,12.629476
579,paderno robbiate,45.678307,9.439202
580,palazzolo dello stella,45.803403,13.083957
581,palazzo s.gervasio - montemilone,40.93929,15.98982
582,paceco,37.991354,12.550844
583,pace del mela,38.202459,15.312676
584,ozzano dell'emilia,44.450797,11.487297
585,ozieri chilivani,40.609496,8.933744
586,ovada,44.630377,8.632301
587,oulx cesana claviere sestriere,45.038789,6.831432
588,ottaviano,40.8529,14.4806
589,ottavia,41.9603666,12.4101577
590,padula,40.335142,15.629921
591,otranto,,
592,ostuni,40.752356,17.580809
593,ostiglia,45.072228,11.141059
594,ostia parmense,44.520136,9.844981
595,osteria nuova,44.586613,11.236525
596,ostellato,44.7478165,11.9344808
597,ospitaletto travagliato,45.546042,10.074363
598,ospitaletto mantovano,45.129748,10.604406
599,ospedaletto lodigiano,45.16933,9.575164
600,ospedaletto euganeo,45.221706,11.606553
601,osnago,45.678532,9.386995
602,osimo castelfidardo,43.497033,13.547263
603,oschiri,40.713273,9.107749
604,orvieto,42.723379,12.127412
605,ortona,42.354196,14.407698
606,orte,42.43728,12.408986
607,ortanova,41.350441,15.732059
608,orta miasino,45.795865,8.421217
609,orsago,45.928068,12.434259
610,orotelli,40.321637,9.135464
611,ornavasso,45.970296,8.415892
612,oristano,39.902033,8.603974
613,oris,46.626672,10.645989
614,oriolo,42.166825,12.138499
615,orio litta,45.166778,9.550592
616,oricola-pereto,42.067835,13.044214
617,oriago,45.4508165,12.163934
618,oria,40.508167,17.646534
619,ordona,41.315006,15.620567
620,orbetello,42.450615,11.248972
621,ora/auer,46.36092,11.296781
622,oniferi,40.3181281,9.1702275
623,orsara di puglia,41.241899,15.27766
624,omignano salento,40.252688,15.134406
625,omegna crusinallo,45.898138,8.413929
626,omegna,45.87179,8.413291
627,olten,47.352027,7.907622
628,olmi spercenigo,45.679467,12.338101
629,olmeneta,45.231099,10.03194
630,olmedo,40.649896,8.3769649
631,olivetta san michele,43.878345,7.535066
632,oliveri tindari,38.128346,15.056573
633,olgiate-calco-brivio,45.729166,9.40377
634,olgiata,42.01538,12.363864
635,orciano,,
636,olevano,45.212119,8.71182
637,oleggio,45.598029,8.632586
638,olcio,45.938011,9.313898
639,olbia terranova,40.9222788,9.493931
640,olbia,40.924595,9.498293
641,oggiono,45.788993,9.33748
642,offida castel di lama,42.862074,13.720285
643,oderzo,45.775304,12.49293
644,occhiobello,44.899384,11.621197
645,nus,45.738786,7.4712
646,nuovo salario,41.956195,12.510317
647,nuoro,40.3203615,9.3228223
648,nozzano,43.829956,10.40716
649,novi ligure,44.762521,8.787289
650,novate-mezzola,46.216595,9.446573
651,novara montalbano furnari,38.121516,15.130702
652,novara,45.451376,8.624895
653,notaresco,42.706502,13.876365
654,none,44.938011,7.540068
655,nola,40.9294,14.5268
656,nola,40.923652,14.525004
657,nogara,45.179937,11.070572
658,noci,,
659,nocera umbra,43.100663,12.767207
660,nocera superiore,40.742597,14.672398
661,nocera inferiore mercato,40.745668,14.649129
662,nocera inferiore,40.745318,14.635346
663,noale scorze`,45.553833,12.074888
664,nizza monferrato,44.772905,8.361146
665,nizza di sicilia,37.996937,15.412334
666,niusci,,
667,nicotera,38.549328,15.933749
668,nicorvo,45.275462,8.6712
669,nole,45.2415,7.5716
670,nichelino,44.99132,7.642068
671,nibbia,45.481363,8.557993
672,nettuno,41.459558,12.662123
673,nesima,,
674,nera montoro,42.497855,12.476587
675,nepezzano - piano d'accio,,
676,nave san felice,,
677,navacchio,43.685941,10.486806
678,naturno,46.645095,11.004303
679,narni amelia,42.53128,12.519592
680,nardo' citta',,
681,nardo' centrale,,
682,niscemi,37.145,14.403471
683,napoli s.giov.barra,40.831269,14.307811
684,napoli porta nolana,40.8492,14.2693
685,napoli piazza leopardi,40.82397,14.199117
686,napoli piazza garibaldi,40.852326,14.275159
687,napoli montesanto,40.847807,14.244022
688,napoli mergellina,40.831531,14.218662
689,napoli gianturco,40.853959,14.288213
690,napoli garibaldi,,
691,napoli centro direzionale,40.8591,14.2816
692,napoli centrale,40.852933,14.272908
693,napoli campi flegrei,40.822462,14.194649
694,mussotto,44.713227,8.015194
695,musiano-pian di macina,44.402423,11.344912
696,muro leccese,,
697,murlo,43.11398,11.400394
698,muratella,41.826182,12.412696
699,mungivacca,,
700,mulinetti,44.362614,9.129499
701,mugnano,40.913,14.2182
702,muenchen hbf,48.1406845,11.5572783
703,mozzecane,45.306687,10.823657
704,mozia-birgi,37.884956,12.499016
705,motta san giovanni lazzaro,37.976978,15.659977
706,motta s. damiano,45.178344,9.219866
707,motta di livenza,45.779114,12.607118
708,mostra,40.8246,14.1932
709,mostizzolo,46.393993,11.011326
710,mosciano s. angelo,42.710309,13.908563
711,mortara,45.252171,8.731639
712,morrovalle monte s.giusto,43.279189,13.58285
713,morrea-castronovo-rendinara,41.85194,13.48799
714,morolo,41.667018,13.194557
715,mornago cimbro,45.729742,8.734193
716,morlupo,42.143515,12.490568
717,mori,45.861216,11.002648
718,morengo bariano,45.521639,9.703114
719,moregine,40.7382,14.4853
720,morciano-barbarano-castrignano-giuliano,,
721,morbegno,46.136663,9.568646
722,morano sul po,45.170793,8.366168
723,monzuno,44.322277,11.262082
724,monzone-m.dei banchi-isolano,44.165637,10.123827
725,monza sobborghi,45.582082,9.284375
726,monza,45.577789,9.273253
727,montirone,45.451352,10.239482
728,monticello d`alba,44.703736,7.965002
729,monti telti,40.829632,9.322814
730,montevarchi terranuova,43.525165,11.563983
731,montesilvano,42.515766,14.152567
732,montesanto,40.8472,14.2458
733,morcone,41.340445,14.677658
734,montesanto,44.732964,11.73652
735,monterotondo,42.06409,12.595753
736,monterosso,44.145967,9.649009
737,monteroni di lecce,,
738,monteroni d`arbia,43.230036,11.419662
739,montereale valcellina,46.148009,12.658923
740,montepulciano,43.135353,11.856865
741,montoro forino,40.819987,14.757381
742,monteprandone,42.894183,13.849996
743,montepescali,42.869518,11.068743
744,montepaone - montauro,38.728548,16.541944
745,montenero petacciato,42.033286,14.851015
746,montemarciano,43.651397,13.346478
747,montemaggiore,37.859037,13.693193
748,montelupo capraia,43.733357,11.018997
749,montello gorlago,45.67017,9.808488
750,montesano buonabitacolo,40.286725,15.653794
751,montegrosso,44.818465,8.239171
752,montefiascone,42.520268,12.050448
753,montecosaro,43.289297,13.646378
754,montecorvino,40.617439,14.944628
755,montechiaro denice,44.600827,8.352185
756,montecatini terme,43.879327,10.780588
757,montecatini centro,43.881216,10.77081
758,montecarotto castelbellino,43.500005,13.1481
759,montecarlo san salvatore,43.850798,10.68537
760,montebelluna,45.776434,12.054
761,montebello,42.011065,12.488978
762,montebello,45.45251,11.390803
763,monte s.biagio,41.345967,13.347037
764,monte antico,42.981054,11.359819
765,monte antenne,41.93839,12.496317
766,montanaro,45.232674,7.858331
767,montalto di castro,42.334623,11.595085
768,montale agliana,43.912924,11.008309
769,montagnana,45.228238,11.459873
770,montecastelli ponte tevere,,
771,monserrato san gottardo,39.263977,9.14191
772,monselice,45.246116,11.74789
773,montecalvo buonalbergo casalbore,41.2211,14.9795
774,monsampolo del tronto,42.881488,13.803569
775,monopoli,40.952017,17.292455
776,monguelfo valle di casies/welsberg - gsies,46.7529336,12.1073649
777,mongardino,44.84161,8.207411
778,monfalcone,45.807683,13.542929
779,moneglia,44.242449,9.486957
780,mondovi`,44.398255,7.816339
781,monclassico,,
782,moncalieri,44.998187,7.678027
783,monasterace stilo,38.437591,16.574444
784,montaguto panni,41.235362,15.235132
785,momo,45.574646,8.55689
786,mombaruzzo,44.76235,8.441006
787,mombaldone roccaverano,44.569891,8.332781
788,molteno,45.780939,9.301683
789,mollaro,46.294689,11.068178
790,molino del pallone,44.100128,10.961252
791,molinetti,,
792,molinella,,
793,molina castel vecchio subaqueo,42.143476,13.739644
794,molfetta,41.196008,16.596793
795,molare,44.621975,8.609904
796,molafa`,40.697891,8.519785
797,mola di bari,41.057227,17.080919
798,moio,,
799,moimacco,,
800,moiana,45.787082,9.255607
801,mogliano veneto,45.561964,12.23274
802,modugno,41.0864607,16.7793847
803,modica,36.8529,14.754255
804,modena policlinico,,
805,modena,44.654461,10.930373
806,modane,45.1930943,6.6584683
807,misterbianco,,
808,misano adriatico,43.977493,12.697121
809,mirto crosia,39.604876,16.777366
810,mirandola,44.891638,11.111689
811,miradolo terme,45.162007,9.449952
812,mira mirano,45.462943,12.118789
813,mira buse,45.4271037,12.1390727
814,minucciano - pieve - casola,44.194385,10.193837
815,minturno,41.257621,13.720664
816,minervino murge,41.081788,16.074974
817,militello,37.277194,14.78317
818,milazzo,38.21195,15.244203
819,milano villapizzone,45.5020897,9.1507027
820,milano venezia,45.471121,9.201889
821,milano san cristoforo,45.442404,9.130258
822,milano romolo,45.445008,9.168933
823,milano rogoredo,45.433866,9.2391
824,milano porta vittoria,45.459579,9.21813
825,milano porta romana,45.445844,9.213128
826,milano porta genova,45.453379,9.169303
827,milano porta garibaldi,45.484917,9.187683
828,milano lancetti,45.492632,9.175832
829,milano lambrate,45.484933,9.237333
830,milano greco pirelli,45.51272,9.214456
831,milano forlanini,45.463706,9.237035
832,milano dateo,45.462341,9.209277
833,milano certosa,45.507019,9.133863
834,milano centrale,45.486347,9.204528
835,milano bovisa,45.502993,9.159235
836,mignano di monte lungo,41.407585,13.986672
837,migliaro,,
838,migliarino,,
839,miggiano,,
840,mezzovico,,
841,mezzolombardo,,
842,mezzolara,,
843,mezzocorona borgata,46.21419,11.118815
844,milano domodossola,45.481199,9.162045
845,mezzocorona,,
846,mezzocorona,46.207258,11.128595
847,mezzano,44.463,12.098501
848,milano cadorna,45.468359,9.175596
849,mezzani rondani,44.966764,10.398818
850,mezzana,,
851,metaponto,40.368496,16.815176
852,meta,40.6402,14.4163
853,mestrino,45.457878,11.773859
854,mestre porta ovest,45.4821164,12.2320635
855,messina centrale,38.184975,15.561278
856,mesagne,40.563203,17.802082
857,merone,45.781374,9.243772
858,mergozzo,45.961303,8.440881
859,mercenasco,45.353436,7.886405
860,mercato san severino,40.783095,14.759749
861,mercatello,40.606491,15.38979
862,mercalli,39.232339,9.1367075
863,merano/meran,46.673066,11.148978
864,merano maia bassa/meran untermais,46.6556907,11.1488777
865,merana,44.519368,8.298327
866,meolo,45.61319,12.453969
867,mendrisio,,
868,melzo,45.502191,9.420653
869,melpignano,,
870,melito di porto salvo,37.916732,15.780816
871,melissano,,
872,melide,,
873,melfi,40.989871,15.646895
874,melegnano,45.356321,9.319271
875,mele,44.472797,8.733953
876,meina,45.794389,8.535452
877,medesano,44.749265,10.140335
878,mede,45.095009,8.742594
879,meana,45.1246,7.0603
880,mazara del vallo,37.652448,12.594565
881,memmenano,43.7116262,11.785562
882,matrice montagano,41.621321,14.699561
883,matino,,
884,matelica,43.25394,13.01509
885,mastellina,,
886,massarosa bozzano,43.855652,10.352022
887,massalombarda,44.448948,11.828068
888,massafra,40.582968,17.107899
889,meduno,46.200678,12.80282
890,massafiscaglia,,
891,massa centro,44.023741,10.136041
892,masi torello,,
893,masi di vigo,46.239039,11.062272
894,mascali nunziata,,
895,mascali,37.765403,15.1942
896,marzocca,43.677362,13.287922
897,marzabotto,44.341237,11.207351
898,martinsicuro,42.8797229,13.9031162
899,mathi,45.2556,7.5411
900,martina franca-colonne grassi,,
901,martina franca,,
902,marsala,37.793514,12.443174
903,marrubiu terralba arborea,39.75293,8.641144
904,marradi,44.07973,11.619174
905,marotta mondolfo,43.769748,13.137273
906,marmore,42.547499,12.715224
907,marlengo,46.664558,11.138577
908,marino del tronto folignano,42.844346,13.632995
909,marino,41.768961,12.655994
910,marinella,40.999129,9.55362
911,marina di san lorenzo,37.919844,15.826365
912,marina di maratea,39.959512,15.735953
913,marina di cerveteri,41.979133,12.047924
914,marilleva 900,46.315279,10.812217
915,marigliano,40.9169,14.4565
916,mariano comense,45.693622,9.18147
917,marechiaro,41.470762,12.6123
918,marcianise,41.03596,14.287658
919,marcellina verbicaro orsomarso,39.766974,15.822665
920,marcaria,45.124518,10.533651
921,marausa,37.92647,12.504113
922,maratea,39.995028,15.70975
923,marano ticino,45.629485,8.626172
924,marano,45.706864,11.4246
925,manziana-canale monterano,42.128246,12.134934
926,manzano,45.98811,13.375016
927,mantova frassine,45.150491,10.831007
928,mantova,45.158746,10.783165
929,manoppello,42.305848,14.061057
930,maniago,46.170057,12.714527
931,mangone,,
932,manerbio,45.357212,10.132348
933,mandello del lario,45.915208,9.322061
934,mandela-sambuci,42.016212,12.921976
935,mandatoriccio campana,39.525442,16.893125
936,mandas,39.6600058,9.1323471
937,manarola,44.109904,9.727401
938,mamuntanas,40.6070302,8.3551646
939,maltignano del tronto,42.844918,13.664738
940,malpensa,45.4909937,8.9472387
941,malles venosta,46.684542,10.546445
942,maletto,,
943,maleo,45.170118,9.755201
944,male',,
945,maglie,,
946,magliano crava morozzo,44.445259,7.777852
947,magliano,42.148058,12.478828
948,magliana,41.834235,12.431017
949,magione,43.137356,12.202238
950,magenta,45.468204,8.880633
951,maerne di martellago,45.514799,12.150629
952,madonnelle,40.8712,14.3345
953,madonna di porto,,
954,madonna dell'arco,40.8674,14.3894
955,madonna del pozzo,,
956,madignano,45.34383,9.730179
957,maddaloni inferiore,41.035954,14.380504
958,macomer,40.2689206,8.7727715
959,macomer,40.267899,8.772279
960,macherio-canonica,45.645533,9.286736
961,macerata università,43.2881554,13.4720466
962,macerata fontescodella,43.291569,13.44048
963,macerata,43.293094,13.455172
964,maccarese,41.879372,12.23695
965,luzzara,,
966,luzern,47.050008,8.3107745
967,madonna del pilone,44.695347,7.747639
968,madonna del piano,42.259963,12.166357
969,luni,44.074542,10.016194
970,lunghezza,41.923253,12.667212
971,lungavilla,45.049837,9.068968
972,luino,45.996643,8.737464
973,lugo,44.414106,11.914723
974,lugano paradiso,,
975,macherio sovico,45.642485,9.266895
976,lugano,46.0052,8.946584
977,lucrino,40.8294,14.0834
978,lucera 2,,
979,lucera,,
980,lucca,43.837186,10.506069
981,loreto,43.448376,13.620455
982,loreo,45.059476,12.191569
983,lonigo,45.413269,11.345016
984,longarone zoldo,46.267466,12.301953
985,lonato,45.457204,10.486714
986,lomello,45.117276,8.799121
987,lodi,45.308966,9.497585
988,locri,38.233154,16.264787
989,locorotondo,,
990,locate triulzi,45.35973,9.221398
991,loano,44.122429,8.254523
992,ljubljana tivoli,,
993,livorno ferraris,45.283402,8.073493
994,livorno centrale,43.55406,10.336593
995,lissone-muggio`,45.60592,9.235368
996,lison,45.751947,12.759416
997,linz hbf,48.2903087,14.2915966
998,linguaglossa,,
999,lineri,,
1000,limone,44.203799,7.577912
1001,lierna,45.960973,9.303071
1002,lienz,46.8284708,12.7713293
1003,lido di lavinio,41.500599,12.625926
1004,lido di classe-lido di savio,44.314546,12.292722
1005,licola,40.8714,14.059
1006,licodia sud,,
1007,licodia centro,,
1008,licata,37.106024,13.938114
1009,levico,46.005729,11.30493
1010,levate,45.62676,9.62958
1011,levata,45.11845,10.75963
1012,levanto,44.174167,9.616018
1013,letojanni,37.877581,15.303128
1014,lesegno,44.385891,7.94266
1015,lesa,45.833042,8.566471
1016,lerino,45.518725,11.63567
1017,leopardi,40.766,14.4176
1018,leonforte-pirato,37.606305,14.376063
1019,lentini,37.300916,14.99758
1020,lentigione,,
1021,lendinara,45.081816,11.591667
1022,lei,40.2999562,8.9219045
1023,legnano,45.593653,8.910638
1024,legnago,45.189034,11.304724
1025,lecco maggianico,45.831179,9.411691
1026,lesmo,45.644745,9.309318
1027,lecco,45.856471,9.393638
1028,lecce,40.34566,18.165724
1029,le piagge,43.789684,11.171665
1030,lavorgo,,
1031,lavis,,
1032,lavis,46.148306,11.095993
1033,lavezzola,44.559591,11.880154
1034,laveno mombello,45.903272,8.624583
1035,lavagna,44.305677,9.346371
1036,lausanne,46.5164,6.62832
1037,latisana lignano bibione,45.777733,13.001101
1038,latina,41.538372,12.945888
1039,leggiuno monvalle,45.867349,8.629476
1040,latiano,40.558074,17.717629
1041,laterina,43.496458,11.660573
1042,lastra a signa,43.7692473,11.1023846
1043,lascari,38.0118,13.9298
1044,lasa,46.618617,10.694828
1045,larino,41.80015,14.918226
1046,lanzara fimiani,40.769685,14.68115
1047,laveno mombello nord,45.90856,8.618487
1048,lanuvio,41.672211,12.690885
1049,lancenigo,45.710087,12.265663
1050,lana-postal/lana-burgstall,46.608079,11.182252
1051,lamezia terme sambiase,38.959927,16.284962
1052,lamezia terme nicastro,38.966779,16.320043
1053,lamezia terme centrale,38.921347,16.255577
1054,lambrinia,45.164376,9.527436
1055,lamar,46.126033,11.1076
1056,lama di reno,44.363501,11.216168
1057,lama,45.043466,11.913123
1058,laives/leifers,46.43409,11.323533
1059,lanzo,45.2726818,7.4801445
1060,laigueglia,43.981283,8.158685
1061,laces,46.619692,10.85863
1062,labro moggio,42.506131,12.746224
1063,labico,41.7830162,12.8896728
1064,labaro,41.98853,12.49475
1065,la trencia,40.854,14.1719
1066,la storta,42.001748,12.381254
1067,la spezia migliarina,44.123391,9.84028
1068,la spezia centrale,44.11141,9.813906
1069,la selva,,
1070,la rustica u.i.r.,41.9125381,12.6217515
1071,la rustica citta',41.9116325,12.6160184
1072,la pigna,40.9089,14.355
1073,la giustiniana,42.0031,12.488118
1074,la giustiniana,41.985243,12.403457
1075,lagonegro centro,,
1076,lagonegro,40.120325,15.7627
1077,la celsa,41.996388,12.496903
1078,l`aquila sassa nsi,42.363787,13.312485
1079,l`aquila san gregorio,,
1080,l`aquila campo di pile,42.354635,13.348335
1081,l`aquila,42.351055,13.384959
1082,joppolo,38.580318,15.897025
1083,jesi,43.520164,13.251316
1084,jenbach,47.3885174,11.7785118
1085,itri,41.271328,13.545549
1086,istrana,45.676539,12.102781
1087,isoletta-s.giovanni incarico,41.527873,13.547095
1088,isola liri,41.681712,13.581088
1089,isola delle femmine,38.194784,13.250188
1090,isola della scala,45.269474,11.013312
1091,isola del cantone,44.646589,8.957578
1092,isili,39.7381003,9.1123879
1093,isernia,41.596946,14.235421
1094,iscra,40.3228689,9.0377134
1095,ischitella,,
1096,ipogeo degli ottavi,41.968391,12.409026
1097,innsbruck hbf,47.2632776,11.4010086
1098,induno olona,45.846432,8.838357
1099,incoronata,41.408174,15.650728
1100,incisa,43.656541,11.452728
1101,imperia,,
1102,ispra,45.811573,8.621338
1103,imola,44.359418,11.718723
1104,il neto,43.839624,11.182656
1105,iglesias,39.310563,8.539786
1106,igea marina,44.131972,12.481636
1107,heinfels,,
1108,guindazzi,40.8622,14.3843
1109,guidonia-montecello-s.angelo,41.993405,12.725681
1110,guastalla,,
1111,guardia piemontese terme,39.464259,15.979237
1112,guardia mangano santa venerina,37.661812,15.169447
1113,guardavalle,38.480266,16.578923
1114,gualtieri,,
1115,gualdo tadino,43.233475,12.7672
1116,grumo appula,41.01199,16.718777
1117,grumo - san michele,,
1118,grumello del monte,45.634102,9.862767
1119,grugliasco,45.0682563,7.5989937
1120,grotte s.stefano,42.51512,12.169372
1121,grotte,37.409848,13.702717
1122,grottarossa,41.96562,12.490465
1123,grottammare,42.99381,13.870265
1124,grottaglie,40.528989,17.424503
1125,grotta del sole,40.8785,14.0946
1126,grosseto,42.76728,11.1065
1127,gropello cairoli,45.173101,8.991626
1128,grizzana - morandi,44.258292,11.181194
1129,grisolia s.maria,39.739731,15.821072
1130,grisignano di zocco,45.48638,11.710762
1131,grigno,46.015059,11.624984
1132,gricignano,40.998742,14.241657
1133,greccio,42.462872,12.777009
1134,gravellona toce,45.934051,8.428346
1135,grassano,40.593317,16.241049
1136,granarolo,44.357356,11.937441
1137,granaiolo,43.652244,10.945223
1138,grammichele,37.209336,14.641256
1139,gragnola,44.191069,10.109245
1140,gozzano,45.741039,8.438726
1141,gottardo,39.26396,9.141704
1142,gorizia centrale,45.933047,13.60684
1143,goriano sicoli,42.082698,13.78286
1144,gorgo al monticano,45.784444,12.553737
1145,gordola,,
1146,gonzaga-reggiolo,44.939239,10.815533
1147,golfo aranci,40.997261,9.62471
1148,godo,44.389322,12.071256
1149,gravina in puglia,40.825216,16.418926
1150,glorie,44.483341,12.075736
1151,giulianova,42.751673,13.965743
1152,giugliano qualiano,40.935018,14.10378
1153,giugliano,40.9279,14.2177
1154,giovinazzo,41.180968,16.669346
1155,giovi,43.526767,11.864537
1156,giojosa marea,38.175149,14.894794
1157,gioiosa jonica,38.300812,16.332501
1158,gioia tauro,38.423436,15.897516
1159,gioia del colle,40.796983,16.916569
1160,ginosa,40.429201,16.890968
1161,gimigliano,,
1162,giave,40.455875,8.729388
1163,giarre riposto,37.730346,15.193386
1164,giarre,,
1165,giarole,45.056125,8.5609
1166,giampilieri,38.080121,15.493863
1167,giaconia,,
1168,giachery,38.138135,13.355856
1169,ghivizzano - coreglia,44.027583,10.510183
1170,ghedi,45.409439,10.280506
1171,gesico,39.6009447,9.1309767
1172,gerolomini,40.8206,14.1351
1173,genova voltri,44.428467,8.758163
1174,genova via di francia,44.411126,8.90192
1175,genova sturla,44.397977,8.981466
1176,genova sestri ponente,44.422374,8.847707
1177,genova san biagio,44.484399,8.900854
1178,genova sampierdarena,44.413102,8.887271
1179,genova rivarolo,44.435955,8.89106
1180,genova quinto al mare,44.385184,9.020514
1181,genova quarto dei mille,44.388607,8.99597
1182,genova pra,44.426874,8.785356
1183,genova pontedecimo,44.494189,8.905642
1184,genova piazza principe,44.417784,8.9207
1185,genova piazza manin,,
1186,genova pegli,44.426236,8.816767
1187,germagnano,45.2627,7.47041
1188,genova nervi,44.381271,9.039895
1189,genova granara,44.442055,8.823453
1190,genova costa di sestri ponente,44.433535,8.84553
1191,genova cornigliano,44.414752,8.865035
1192,genova brignole,44.407213,8.947553
1193,genova borzoli,44.434704,8.866648
1194,genova bolzaneto,44.459208,8.900193
1195,genova acquasanta,44.458757,8.773197
1196,genneruxi,39.225902,9.1319798
1197,gennari,39.220217,9.1310656
1198,genga s.vittore terme,43.403011,12.977163
1199,gemona del friuli,46.274243,13.127978
1200,gemelli,41.927813,12.427797
1201,gela,37.07283,14.259461
1202,gazzo pieve s. giacomo,45.137151,10.189922
1203,gazzo di bigarello,45.176648,10.894005
1204,gazzada schianno morazzone,45.77862,8.824815
1205,gavorrano,42.947959,10.9338
1206,gatteo a mare,44.170691,12.432057
1207,garlasco,45.198948,8.926829
1208,gargazzone/gargazon,46.5748627,11.1988802
1209,gardolo,,
1210,garbagna,45.385552,8.66627
1211,gambolo`remondo`,45.23587,8.79757
1212,gambettola,44.116718,12.327555
1213,galugnano,,
1214,gallipoli,,
1215,galliera veneta tombolo,45.652901,11.828066
1216,galliera,44.737738,11.441551
1217,gallese in teverina,42.380901,12.439732
1218,gallarate,45.659828,8.798243
1219,galatone citta',,
1220,galatina,,
1221,galati,38.104511,15.505313
1222,gaifana,43.181837,12.784148
1223,gaibanella,44.778116,11.671325
1224,gagliole,43.220298,13.07522
1225,gagliano leuca,,
1226,gagliano,,
1227,gaggio porta est,45.5451761,12.314304
1228,gaggiano,45.408827,9.031117
1229,fusaro,40.8184,14.0608
1230,furnitz,,
1231,furci,37.961714,15.380022
1232,gallese bassanello,42.3798,12.371998
1233,fuorigrotta,40.8279,14.2018
1234,funtana niedda,40.777107,8.545754
1235,funo centergross,44.593646,11.370672
1236,frugarolo boscomarengo,44.841687,8.682724
1237,frosinone,41.625333,13.328728
1238,freilassing,47.8366214,12.9748453
1239,fratte-villa comunale,40.697895,14.779252
1240,fratte centro,45.585849,11.906637
1241,fratte,40.705637,14.778362
1242,frattamaggiore,40.940018,14.263676
1243,fratta,45.038673,11.642598
1244,frasso t. dugenta,41.137244,14.459459
1245,frascati,41.806881,12.677962
1246,franciosa,40.67851,15.6247007
1247,francia,38.155233,13.321938
1248,francavilla fontana,40.523145,17.584714
1249,francavilla al mare,42.421316,14.288062
1250,framura,44.201903,9.555169
1251,fossato di vico gubbio,43.283798,12.757258
1252,fossano,44.550231,7.717971
1253,fossalta di piave,45.624215,12.500393
1254,fossacesia-torino di sangro,42.237648,14.525456
1255,fosciandora - ceserana,44.118559,10.444212
1256,fortezza/franzensfeste,46.788841,11.609922
1257,forte dei marmi serravezza querceta,43.97777,10.19936
1258,frasso,41.3660848,13.2008602
1259,fornovo,44.693791,10.102014
1260,fornaci di barga,44.045253,10.473173
1261,fornacchia,42.439963,12.204813
1262,formigine,,
1263,formia,41.258773,13.605996
1264,forlimpopoli,44.194165,12.128125
1265,fragneto monforte,41.247292,14.76486
1266,forli`,44.22413,12.054871
1267,forenza,40.866839,15.725331
1268,fontecchio,42.222822,13.604445
1269,fontaniva,45.634723,11.749038
1270,fontanetto po,45.191238,8.188697
1271,fontanarosa,41.435983,13.83145
1272,fontanafredda,45.967555,12.575266
1273,fontana liri inferiore,41.60463,13.55929
1274,fondi - sperlonga,41.337663,13.424893
1275,follonica,42.926687,10.755775
1276,foligno,42.954261,12.711096
1277,fognano,44.2033039,11.7276142
1278,foggia,41.466,15.555816
1279,forgaria bagni anduins,46.203472,12.964109
1280,flocco,40.8035,14.5322
1281,flaminio,41.912865,12.476535
1282,fivizzano rometta - soliera,44.201526,10.05953
1283,fivizzano - gassano,44.202672,10.091691
1284,fiumicino aeroporto,41.793673,12.251728
1285,fiumelatte,45.999017,9.292857
1286,fiumefreddo di sicilia,37.795247,15.205615
1287,fontana liri,41.61827,13.562
1288,fisciano,40.759095,14.77486
1289,firenze statuto,43.787273,11.249738
1290,firenze santa maria novella,43.776893,11.247373
1291,firenze rifredi,43.800873,11.235729
1292,firenze castello,43.819444,11.21838
1293,firenze campo marte,43.776856,11.27702
1294,fiorenzuola,44.928716,9.917403
1295,fiorano,,
1296,finale ligure marina,44.169116,8.34033
1297,filiano,40.837161,15.752285
1298,filattiera,44.33137,9.933352
1299,figline valdarno,43.621596,11.473652
1300,figline - cellara,,
1301,fiesole caldine,43.833697,11.266047
1302,fiera,38.144004,13.351336
1303,fidenza,44.86773,10.06339
1304,fidene,41.979773,12.508451
1305,ficarazzi,38.08657,13.46409
1306,fi rovezzano,43.768657,11.307372
1307,ferruzzano,38.016304,16.134486
1308,ferrera lomellina,45.111807,8.862805
1309,ferrara,44.843047,11.603594
1310,ferrania,44.365136,8.328885
1311,ferrandina,40.516566,16.475276
1312,feroleto antica pianopoli,38.938255,16.36622
1313,ferno-lonate pozzolo,45.6085437,8.7552452
1314,fermata sovereto,41.11776,16.585052
1315,ferentino-supino,41.6564,13.246971
1316,feltre,46.012884,11.911493
1317,felizzano,44.893367,8.437155
1318,federico,38.144862,13.344966
1319,fasano,40.851753,17.3859
1320,fara sabina,42.155546,12.648323
1321,fanzolo,45.708253,11.992069
1322,fano,43.842977,13.02478
1323,faleri,42.30561,12.351762
1324,falcone,38.119573,15.080467
1325,falconara stadio,43.626158,13.381179
1326,falconara marittima,43.630577,13.397378
1327,falciano mondragone carinola,41.123525,13.971792
1328,faido,,
1329,fagnano campana,42.250575,13.562743
1330,fagare,45.70705,12.444296
1331,faenza,44.293594,11.883268
1332,fabro-ficulle,42.874851,12.04123
1333,fauglia-lorenzana,,
1334,fabrica,42.333983,12.309588
1335,fabriano,43.345429,12.905336
1336,euclide,41.926438,12.48178
1337,fanna - cavasso,46.187072,12.7707
1338,este,45.220954,11.662931
1339,ercolano scavi,40.8089,14.3549
1340,ercolano miglio d'oro,40.8021,14.3613
1341,equi terme,44.170282,10.153624
1342,enna,37.581134,14.289579
1343,empoli,43.715708,10.94915
1344,emiciclo garibaldi,40.722939,8.5614505
1345,ellera corciano,43.094699,12.318574
1346,egna- termeno/neumarkt- tramin,46.319418,11.257177
1347,fabrica di roma,42.334416,12.307467
1348,eboli,40.611057,15.052382
1349,dulcino,,
1350,dueville,45.635,11.546108
1351,due ponti,41.956855,12.486512
1352,dubino,46.172802,9.432188
1353,dragoni,41.27116,14.31307
1354,dossobuono,45.392382,10.914831
1355,dormelletto paese,45.730032,8.574324
1356,dormelletto,45.7233,8.581906
1357,dorio,46.102756,9.319063
1358,donori,39.4279551,9.1199166
1359,donnaz,45.602713,7.769563
1360,donnafugata,36.882055,14.568968
1361,don bosco,,
1362,domodossola,46.115429,8.296684
1363,domegliara,45.522348,10.820408
1364,dolo,45.453466,12.07161
1365,dolianova,39.376598,9.168922
1366,dogato,,
1367,dobbiaco/toblach,46.725049,12.225122
1368,dittaino,37.564605,14.462429
1369,dinazzano,,
1370,dimaro,,
1371,diecimo - pescaglia,43.959404,10.507844
1372,dicomano,43.893489,11.519148
1373,diano,,
1374,diamante buonvicino,39.67701,15.824278
1375,desio,45.620112,9.218495
1376,desenzano,45.462677,10.536322
1377,dervio,46.077709,9.30596
1378,dermulo,,
1379,denno,46.262854,11.059778
1380,dell'argine,39.26434,9.134401
1381,delebio,46.13865,9.461168
1382,deiva marina,44.217306,9.519022
1383,dego,44.448003,8.308469
1384,decollatura,,
1385,decimomannu,39.304593,8.965808
1386,de ruggiero,40.9163,14.4285
1387,dazio,40.8175,14.1597
1388,daolasa,,
1389,cuzzago (no),,
1390,cuzzago,45.993682,8.373989
1391,cutro,39.02593,16.963809
1392,cusano,45.945427,12.757485
1393,cupramarittima,43.02349,13.860812
1394,cupone,41.964628,13.377481
1395,cuneo,44.387914,7.536235
1396,cucciago,45.740813,9.082205
1397,crucoli,39.449588,17.040718
1398,croviana,,
1399,crotone,39.0845,17.108418
1400,cropani,38.921968,16.813562
1401,crispiano,,
1402,crevalcore,44.719156,11.152625
1403,cressa fontaneto,45.646331,8.498435
1404,crespino del lamone,44.041816,11.5484039
1405,crespellano,,
1406,crescino,46.241988,11.058491
1407,crescentino,45.194302,8.107175
1408,cremona,45.143215,10.017951
1409,crema,45.366864,9.694209
1410,crabulazzi,40.771665,8.5448136
1411,cotignola,44.387077,11.938037
1412,costa masnaga,45.76343,9.285231
1413,costa,45.045766,11.696511
1414,cossato,45.564216,8.175964
1415,cosio traona,46.135564,9.525498
1416,cosenza monaco,,
1417,cosenza centro,,
1418,cosenza campanella,,
1419,cosenza - casali,,
1420,cosenza,,
1421,cosenza,39.318386,16.260955
1422,corvo aranceto,,
1423,corteolona,45.159701,9.375477
1424,corso vittorio emanuele,,
1425,corsico,45.434688,9.105156
1426,corridonia mogliano,43.281616,13.477697
1427,coronella,44.7960987,11.5445635
1428,cornuda,45.833846,12.012886
1429,corniglia,44.119938,9.711051
1430,corniano,,
1431,cormons,45.957519,13.461563
1432,corigliano d'otranto,,
1433,corigliano calabro,39.628223,16.514949
1434,cordovado sesto,45.850653,12.877784
1435,corchiano,42.349967,12.340368
1436,corbezzi,43.993948,10.919676
1437,corbetta s. stefano,45.480829,8.917457
1438,corato centrale,41.156755,16.417685
1439,copertino,,
1440,contursi terme,40.630046,15.235486
1441,contigliano,42.412072,12.779144
1442,cornino,46.220516,13.010581
1443,contesse,38.16193,15.544717
1444,contea londa,43.865124,11.531603
1445,conselice,44.510987,11.831949
1446,consandolo,,
1447,condove,45.106689,7.317022
1448,condofuri,37.92761,15.874952
1449,cona veneta,45.18901,12.05664
1450,corchiano,42.361351,12.341846
1451,compre s.vincenzo,41.75241,13.60914
1452,compiobbi,43.782527,11.358695
1453,como s. giovanni,45.808946,9.072331
1454,comiso,36.947184,14.60037
1455,colorno,44.927943,10.382935
1456,colonna galleria,41.8385118,12.7560458
1457,cologne,45.576627,9.935316
1458,colli di monte bove,42.097103,13.15057
1459,collevecchio,42.298089,12.520546
1460,collegno,45.078854,7.574131
1461,colleferro-segni-paliano,41.740062,13.00299
1462,collecchio,44.755339,10.21228
1463,colle mattia,41.832756,12.728329
1464,colle isarco/gossensass,46.937951,11.441336
1465,collarmele,42.06033,13.62946
1466,colico,46.138019,9.375222
1467,colfelice,41.55552,13.60169
1468,coldrano-martello,46.618902,10.821204
1469,cogoleto,44.389762,8.643906
1470,codroipo,45.9657,12.976543
1471,codola,40.767687,14.665622
1472,codogno,45.154897,9.701376
1473,codisotto,,
1474,codigoro,44.8364791,12.1018608
1475,collesalvetti,43.586586,10.470534
1476,cocullo,42.040723,13.776636
1477,coccaglio,45.560971,9.977648
1478,cliniche universitarie,40.71927,8.552915
1479,cles polo scolastico,46.36999,11.033717
1480,cles,,
1481,classe,44.382033,12.234995
1482,civitella roveto,41.916419,13.424882
1483,civitella paganico,42.9402705,11.2832303
1484,civitella - badia al pino,42.94028,11.283536
1485,civitavecchia,42.088287,11.79815
1486,civitanova marche,43.3091,13.7257
1487,civita d`antino-morino,41.870632,13.458868
1488,civita castellana,42.291492,12.413402
1489,civita castellana,42.346593,12.453821
1490,cividale,,
1491,codemondo,,
1492,civate,45.831295,9.352877
1493,cittaducale,42.387764,12.94269
1494,cittadella,45.643868,11.789857
1495,citta` mercato,39.246875,9.1354726
1496,citta' di castello,,
1497,cisternino,40.816652,17.456899
1498,cisterna di latina,41.586511,12.827538
1499,cismon del grappa,45.919664,11.729272
1500,cisano caprino bergamasco,45.739606,9.474261
1501,cirò,,
1502,cionfo binlecure,43.786182,11.268501
1503,cinisi terrasini,38.155314,13.096673
1504,cimitile,40.9391,14.5305
1505,cicciano,40.9606,14.5433
1506,cicala,,
1507,cibali,,
1508,ciardes,46.635274,10.940542
1509,ciampino,41.804442,12.599546
1510,chivasso,45.193637,7.889666
1511,chiusi chianciano terme,43.002466,11.957893
1512,chiusa/klausen,46.642611,11.572678
1513,chiuro,46.164658,9.992317
1514,cirie',45.23009,7.60246
1515,chiuduno,45.650449,9.846924
1516,chiozzola,,
1517,chiozza,,
1518,chiomonte,45.119876,6.988716
1519,chioggia,45.210243,12.275235
1520,chignolo po,45.160942,9.494196
1521,chieuti serracapriola,41.921962,15.156645
1522,chieti,42.356905,14.13815
1523,chieri,45.007008,7.827077
1524,chiavenna,46.321258,9.407129
1525,chiavari,44.315156,9.322464
1526,chiusaforte,,
1527,chiasso,45.830736,9.03421
1528,chiari,45.54011,9.926474
1529,chiaravalle,43.595503,13.327655
1530,chatillon,45.7437,7.6203
1531,chambery,45.57138,5.91965
1532,ceva,44.389861,8.031958
1533,cetraro,39.512553,15.939263
1534,cesenatico,44.20065,12.391186
1535,cesena,44.145449,12.24964
1536,cesano di roma,42.061833,12.326669
1537,cesano boscone,45.4303603,9.0918079
1538,cervinara,41.02893,14.61637
1539,cervignano-aquileia-grado,45.823948,13.342866
1540,cervia-milano marittima,44.258444,12.347096
1541,cerveteri-ladispoli,41.953502,12.081675
1542,certosa di pavia,45.256927,9.154456
1543,chianche ceppaloni,41.050122,14.777618
1544,certaldo,43.547124,11.037711
1545,cerro,,
1546,cerreto d`esi,43.32205,12.98319
1547,cernusco-merate,45.695096,9.396794
1548,cerignola,41.315664,15.897298
1549,ceriale,44.098922,8.234216
1550,ceregnano,45.05062,11.870958
1551,cerea,45.196556,11.213921
1552,cerda,37.953964,13.78447
1553,cercola,40.8563,14.3553
1554,cerchio,42.061082,13.597972
1555,ceprano-falvaterra,41.523962,13.523481
1556,centro rai,41.980908,12.493633
1557,centola,40.090672,15.34674
1558,centallo,44.496223,7.591035
1559,cengio,44.390798,8.191824
1560,celle bulgheria roccagloriosa,40.10287,15.39473
1561,celle,44.34246,8.542626
1562,celano-ovindoli,42.076999,13.543398
1563,ceggia,45.688394,12.633987
1564,cefalu`,38.03285,14.019526
1565,cecina,43.31028,10.514225
1566,cecchina,41.692029,12.650992
1567,ceccano,41.573583,13.336417
1568,cavriago san nicolò,,
1569,cavriago,,
1570,cavorà,,
1571,cavizzana,,
1572,cavi,44.29354,9.37251
1573,cavazzale,45.596079,11.569823
1574,cavarzere centro,45.1489387,12.0848108
1575,cavarzere,45.1489387,12.0848108
1576,cavaria oggiona jerago,45.698145,8.8035
1577,cavanella d`adige,45.111263,12.249312
1578,cavallermaggiore,44.708147,7.692108
1579,cavalleggeri aosta,40.819292,14.185679
1580,cava tigozzi,45.156823,9.955827
1581,cava manara,45.144867,9.115332
1582,cava dei tirreni,40.703662,14.708461
1583,cava carbonara,45.147055,9.071387
1584,caulonia,38.343785,16.467278
1585,cattolica s.giovanni gabicce,43.959931,12.745087
1586,catenanuova,37.562026,14.688263
1587,catanzaro pratica,,
1588,catanzaro piazza matteotti,,
1589,catanzaro lido,,
1590,catanzaro lido,38.821788,16.612975
1591,catanzaro città,,
1592,catanzaro,,
1593,catanzaro,38.896222,16.599081
1594,catania ognina,37.534049,15.11261
1595,catania centrale,37.506211,15.099417
1596,catania borgo,,
1597,catania aeroporto - fontanarossa,37.4724592,15.0598682
1598,catalano,42.295803,12.403395
1599,castronno,45.74524,8.810302
1600,castro-pofi,41.533014,13.410741
1601,castione dei marchesi,44.915157,10.044449
1602,castione andevenno,46.161659,9.806151
1603,castiglione cosentino,39.35542,16.244388
1604,castiglioncello,43.404619,10.414354
1605,castiglion fiorentino,43.34075,11.914362
1606,castiglion del lago,43.123195,12.032077
1607,castenaso stellina,,
1608,castenaso,,
1609,castelvetro,45.100095,9.982181
1610,castelvetrano,37.684977,12.799552
1611,castelvecchio pascoli,44.09007,10.455061
1612,castelrosso,45.201802,7.932162
1613,castelraimondo camerino,43.210511,13.057274
1614,castelplanio cupramontana,43.481403,13.084733
1615,castelnuovo di garfagnana,44.116351,10.409054
1616,castelnuovo d.g.,45.430843,10.758273
1617,castelnuovo berardenga,43.306882,11.484912
1618,castelnuovo,42.129622,12.495048
1619,castelmaggiore,44.576055,11.366901
1620,castellucchio,45.144293,10.64749
1621,castello di godego,45.688082,11.87759
1622,castello d`annone,44.878742,8.312724
1623,castellina ch.,43.408744,11.212379
1624,castelleone,45.301826,9.76779
1625,castellaneta marina,40.481111,16.965434
1626,castellammare di stabia,40.6953,14.4834
1627,castellammare di stabia,40.701398,14.483737
1628,castellammare del golfo,38.024309,12.912209
1629,castellalto canzano,42.69564,13.793043
1630,castelguelfo,44.836434,10.176706
1631,castelfranco veneto,45.666439,11.934315
1632,castelfranco emilia,44.597381,11.056408
1633,castelfiorentino,43.60542,10.968048
1634,castelferretti,43.607303,13.357519
1635,castellina marittima,,
1636,casteldebole,44.503974,11.27456
1637,casteldarne/ehrenburg,46.797708,11.844223
1638,casteldaccia,38.060474,13.536867
1639,castelcisterna,40.9205,14.4124
1640,castelbolognese,44.325391,11.804174
1641,castelbello,46.626994,10.897884
1642,castel s.pietro terme,44.407376,11.597681
1643,castel s.giovanni,45.063272,9.436856
1644,castel s.giorgio roccapiemonte,40.758713,14.692352
1645,castel s.angelo,42.379666,13.017612
1646,castel madama,41.988389,12.864938
1647,castel lagopesole,40.787682,15.758093
1648,castel gandolfo,41.746946,12.652266
1649,castel d`ario,45.183399,10.97531
1650,casteggio,45.017365,9.124595
1651,castagno,44.012359,10.91538
1652,castagneto carducci,43.16816,10.56399
1653,castagnaro,45.119349,11.403936
1654,cassola,45.732291,11.795866
1655,cassino,41.484306,13.832125
1656,cassine,44.751513,8.533613
1657,cassano d`adda,45.514372,9.512746
1658,cassana,,
1659,cassago-nibionno-bulciago,45.746243,9.279834
1660,casoria,40.907762,14.29874
1661,casorate sempione,45.675075,8.743954
1662,casletto-rogeno,45.786028,9.275375
1663,castel di sangro,41.777829,14.112049
1664,casinalbo,,
1665,casilli,40.8263,14.5003
1666,caserta,41.068655,14.328457
1667,casello 8,45.3473,7.6855244
1668,casello 11,45.385,12.0967
1669,casella paese,,
1670,casella deposito,,
1671,cascina,43.674542,10.545225
1672,casarsa,45.953002,12.8406
1673,casarano,,
1674,casamassima,,
1675,casalpusterlengo,45.182473,9.653627
1676,casino di terra,43.328581,10.662975
1677,casalnuovo,40.9078,14.3475
1678,casalnuovo,40.915559,14.35296
1679,casalmaggiore,44.993139,10.425023
1680,casalgrande,,
1681,casaletto vaprio,45.408641,9.631746
1682,caselle aeroporto,45.1918594,7.64162421
1683,caselle,45.1761,7.64454
1684,casaleggio,45.491298,8.490369
1685,casalecchio garibaldi,44.482995,11.272474
1686,casalecchio di reno,44.474298,11.276097
1687,casale monferrato,45.133928,8.460292
1688,casalbuttano,45.255398,9.962361
1689,casalbordino pollutri,42.193653,14.633045
1690,casacalenda guardialfiera,41.738109,14.849602
1691,casabianca,41.788327,12.60431
1692,carsoli,42.09578,13.080388
1693,carruba,37.694344,15.196143
1694,carrito-ortona,42.026506,13.720179
1695,casaletto,40.1702777,15.7188888
1696,carrara avenza,44.051239,10.062927
1697,carpino,,
1698,carpignano sesia,45.528934,8.422898
1699,carpi,44.782919,10.891952
1700,carpane`valstagna,45.860128,11.661183
1701,carovigno,40.737337,17.683791
1702,casalbuono,40.214093,15.686095
1703,caronia,38.034475,14.443761
1704,carnia,46.373634,13.132847
1705,carnate usmate,45.653072,9.375089
1706,carmignano di brenta,45.621354,11.714891
1707,carmiano-magliano,,
1708,carmagnola,44.846944,7.72797
1709,carini torre ciachea,38.16149,13.219641
1710,carini,38.147696,13.186624
1711,carpinone,41.588038,14.326783
1712,carimate,45.697094,9.107188
1713,cariati,39.496884,16.952018
1714,cardillo z.e.n.,38.17495,13.296897
1715,carbonia serbariu,39.169508,8.509186
1716,carbona,44.246876,11.09618
1717,caravaggio,45.491158,9.637723
1718,carate-calo`,45.676451,9.252304
1719,caracalla,39.252806,9.1342787
1720,capua,41.101306,14.210347
1721,capranica,42.245195,12.157194
1722,capralba,45.443871,9.640015
1723,cappuccio,,
1724,cappuccini,40.8221,14.1261
1725,capo d`orlando-naso,38.157941,14.744844
1726,capo bonifati,39.558342,15.874052
1727,capistrello,41.97051,13.399276
1728,capece,,
1729,capannelle,41.830713,12.568884
1730,capalbio,42.407974,11.370982
1731,capaci,38.171794,13.232398
1732,capaccio roccadaspide,40.454518,15.013551
1733,caprarola,42.303815,12.258238
1734,cantu`- cermenate,45.716236,9.099284
1735,cantu`,45.752316,9.130321
1736,cantieri,40.832,14.1116
1737,canova,,
1738,capocroce,41.4005312,13.204813
1739,canosa di puglia,41.218556,16.053906
1740,cannole,,
1741,canneto sull`oglio,45.150211,10.37147
1742,canne della battaglia,41.294583,16.146169
1743,canistro,41.9403077,13.4125911
1744,canicatti`,37.359879,13.855395
1745,canetra,42.391578,13.029159
1746,canegrate,45.569235,8.926593
1747,candiolo,44.961155,7.598973
1748,candia canavese,45.329824,7.891819
1749,candelo,45.547433,8.100103
1750,candela,41.151439,15.533163
1751,cantalupo del sannio,41.5174,14.6671
1752,cancello arnone,41.063369,14.02901
1753,cancello,40.993063,14.418877
1754,cancelliera,41.710587,12.621758
1755,canaro,44.923012,11.675223
1756,camucia cortona,43.261104,11.971245
1757,camposanto,44.787527,11.143587
1758,camposano,40.9522,14.5314
1759,camposampiero,45.568922,11.928293
1760,camporgiano,44.161448,10.334849
1761,campomigliaio,43.937241,11.303593
1762,campomarino,41.957398,15.042416
1763,campolongo maggiore,45.3189,12.05403
1764,campoligure masone,44.530909,8.700878
1765,campolieto monacilioni,41.642573,14.76544
1766,campoleone,41.642396,12.648341
1767,campofranco,37.510105,13.686777
1768,campofelice,37.992615,13.876549
1769,campodarsego,45.505721,11.900894
1770,campobello ravanusa,37.265731,13.946251
1771,campobello di mazara,37.636256,12.733165
1772,campobasso,41.558137,14.66393
1773,campo di trens/freienfeld,46.869076,11.488231
1774,campo di carne,41.552116,12.635125
1775,campiglia marittima,43.017118,10.586558
1776,campi sportivi,41.93407,12.49283
1777,campomaggiore-pietr.,,
1778,campi,,
1779,campello,42.822814,12.761253
1780,campagna serre persano,40.595667,15.113986
1781,campagna lupia camponogara,45.355692,12.0910388
1782,camogli san fruttuoso,44.348166,9.156743
1783,camnago-lentate,45.668425,9.133451
1784,cammarata s.giovanni gemini,37.653759,13.673791
1785,camerano aspio,43.5294752,13.5206688
1786,cambiano santena,44.966491,7.773225
1787,camaiore lido capezzano,43.912176,10.24765
1788,calvisano,45.346572,10.349411
1789,caluso,45.303194,7.902568
1790,calusco,45.684113,9.470646
1791,caltignaga,45.519167,8.591602
1792,caltanissetta xirbi,37.536296,14.056902
1793,caltanissetta centrale,37.48829,14.057396
1794,caltagirone,37.225276,14.521165
1795,calopezzati,39.579022,16.819361
1796,calolziocorte olginate,45.801619,9.42698
1797,calenzano,43.856429,11.14537
1798,caldonazzo,45.997575,11.264815
1799,caldiero,45.41407,11.169753
1800,caldes,,
1801,calderara-bargellino,44.54479,11.26703
1802,calde`,45.945812,8.663157
1803,calcio,45.532937,9.841342
1804,calceranica,46.007384,11.240713
1805,calbenzano,43.6113115,11.8640386
1806,calatabiano,37.814684,15.226568
1807,calalzo pieve cadore cortina,46.443829,12.388668
1808,cairo montenotte,44.394747,8.278786
1809,caiazzo,41.179759,14.3639211
1810,cagliari elmas,39.264193,9.045497
1811,cagliari,39.216078,9.107984
1812,cadeo,44.967283,9.853181
1813,cabiate,45.676,9.16851
1814,ca` di boschetti,44.117925,9.857449
1815,buttapietra,45.338787,10.988059
1816,buttafava,45.62141,9.301185
1817,busto arsizio,45.616164,8.865031
1818,bussoleno,45.139631,7.144819
1819,bussi,42.194154,13.849075
1820,busseto,44.974692,10.038909
1821,busche lentiai mel,46.040092,11.979251
1822,busalletta,,
1823,busalla,44.57558,8.943611
1824,buonconvento,43.135503,11.483773
1825,budrio,,
1826,budoia polcenigo,46.031464,12.537637
1827,bucine,43.480478,11.617609
1828,buccino-s.gregorio magno,40.600806,15.374199
1829,bruzolo,45.131032,7.201497
1830,brusciano,40.9168,14.4292
1831,brunico/bruneck,46.794922,11.929989
1832,bronzolo/branzoll,46.40505,11.315833
1833,bronte casello 54,,
1834,bronte,,
1835,broni,45.066263,9.258751
1836,brolo ficarra,38.159204,14.830176
1837,brisighella,44.220565,11.769757
1838,brindisi perrino,40.625409,17.90947
1839,brindisi cit.lla ric. univ.,,
1840,brindisi,40.634339,17.938978
1841,briatico,38.725447,16.025765
1842,bressanone/brixen,46.710088,11.649677
1843,bressana bottarone,45.086298,9.110602
1844,bressana argine,45.072739,9.137038
1845,brescia,45.532315,10.212828
1846,brescello viadana,,
1847,brennero/brenner,47.004117,11.505711
1848,brenna-alzate,45.754044,9.183312
1849,breil sur roya,43.890267,7.530915
1850,brandizzo,45.178915,7.841218
1851,brancaleone,37.965475,16.103301
1852,bragno,44.371679,8.304473
1853,bracciano,42.103667,12.173023
1854,bra,44.693556,7.848643
1855,bozzolo,45.107246,10.472655
1856,bozzana,46.388888,10.988819
1857,bovolone,45.254446,11.123862
1858,boviso masciago-mombello,45.612,9.14125
1859,bovalino,38.149087,16.180584
1860,bova marina,37.930269,15.923897
1861,bottenicco zi,,
1862,botteghelle,40.8723,14.3154
1863,botricello,38.933943,16.857433
1864,boscotrecase,40.7686,14.4611
1865,boscoreale,40.77,14.4744
1866,bosco,,
1867,bosco,,
1868,boschi s.anna,45.217328,11.362302
1869,bortigali,40.2793336,8.8421155
1870,borovnica,,
1871,borore,40.218992,8.809535
1872,borgoratto,44.835999,8.538182
1873,bovino deliceto,41.27835,15.369255
1874,borgone,45.123191,7.236037
1875,borgomanero,45.701054,8.468093
1876,borgolombardo,45.403856,9.27111
1877,borgofranco,45.514775,7.854612
1878,borgo vercelli,45.359252,8.461474
1879,borgo valsugana est,46.05224,11.462119
1880,borgo valsugana centro,46.051182,11.453967
1881,borgo val di taro,44.486522,9.781489
1882,borgo ticino,45.691943,8.602483
1883,borgo san dalmazzo,44.326249,7.486111
1884,borgo s.martino,45.087083,8.520661
1885,borgo s.lorenzo,43.959822,11.380422
1886,borgo s.l.rimorelli,43.953279,11.400076
1887,borgo revel,45.189827,8.02021
1888,borgo lavezzaro,45.318783,8.703242
1889,borgo fornari per voltaggio,44.588379,8.938295
1890,borgo a mozzano,43.977207,10.541285
1891,borgo a buggiano,43.880724,10.730079
1892,borgio verezzi,44.157722,8.30908
1893,borghetto santo spirito,44.109006,8.242346
1894,borghetto,45.696721,10.927083
1895,boretto,,
1896,bordighera,43.778313,7.663504
1897,bonorva,40.417763,8.760707
1898,bonferraro,45.185651,11.009247
1899,bonassola,44.184867,9.582673
1900,bolzano/bozen,46.496346,11.358556
1901,bolzano sud/bozen sud,46.472617,11.33334
1902,bolzano novarese,45.759357,8.440754
1903,bolotana,40.3103732,8.962588
1904,bologna zanolini,,
1905,bologna via larga,,
1906,bologna santa rita,,
1907,borgaro,45.1532323,7.64867305
1908,bologna s.ruffillo,44.462657,11.372967
1909,bologna rimesse,,
1910,bologna mazzini,44.482284,11.376271
1911,bologna corticella,44.551985,11.35401
1912,bologna centrale,44.50626,11.342267
1913,bologna borgo panigale,44.515024,11.284728
1914,bollate nord,45.5527119,9.1122699
1915,bolgheri,43.244664,10.550548
1916,magre`- cortaccia/margreid- kurtatsch,,
1917,muenchen ost,,
1918,bologna centrale sotterranea av,,
1919,serravalle,,
1920,steinach tirol,,
1921,matrei,,
1922,bojon,45.33648,12.08052
1923,bogliasco,44.379207,9.066042
1924,bodio,,
1925,bivio d`aurisina,45.754253,13.655777
1926,bitonto santi medici,,
1927,bitonto centrale,41.113238,16.684481
1928,bitetto palo del colle,41.041481,16.74053
1929,bisuschio viggiu,45.870658,8.887544
1930,bistagno,44.659256,8.372057
1931,bisceglie,41.235445,16.499484
1932,birori,40.2697211,8.8178504
1933,binario s.marco vecchio,43.790336,11.267403
1934,biforco,44.068431,11.602243
1935,biella s.paolo,45.557334,8.067541
1936,boiano,41.487883,14.474551
1937,bicocca,37.460617,15.044594
1938,bibbiano,,
1939,biassono-lesmo parco,45.632209,9.298408
1940,bianzone,46.179383,10.112507
1941,bianze`,45.309488,8.115523
1942,bianco,38.089072,16.153348
1943,biancavilla pozzillo,,
1944,biancavilla poggio rosso,,
1945,biancavilla colombo,,
1946,biancavilla centro,,
1947,biagioni lagacci,44.086359,10.948257
1948,bevilacqua,45.230145,11.398643
1949,bevera,43.825303,7.579157
1950,besozzo,45.842188,8.662997
1951,besnate,45.695409,8.761072
1952,besana,45.702824,9.28288
1953,bernalda,40.397616,16.682281
1954,bergamo ospedale,45.688194,9.638444
1955,bergamo,45.690271,9.675082
1956,berchidda,40.772052,9.181312
1957,berceto,44.555912,9.931759
1958,benevento appia,41.1325806,14.7664726
1959,benevento,41.141901,14.769998
1960,belvedere marittimo,39.616549,15.853039
1961,belluno,46.141594,12.209703
1962,bellisio solfare,43.520379,12.823977
1963,bellinzona,46.1958544,9.029745
1964,bellinzago,45.566681,8.627652
1965,bellaria,44.150249,12.461168
1966,bellante ripattone,42.705775,13.837978
1967,bellano tartavelle terme,46.039448,9.302776
1968,bella muro,40.700914,15.542936
1969,belgirate,45.843337,8.570821
1970,belgioioso,45.16456,9.316875
1971,beffi,42.197341,13.660759
1972,beaulard,45.046495,6.759713
1973,benevento arco traiano,41.136834,14.777662
1974,bazzano,42.334684,13.443199
1975,bazzano,40.754903,8.516505
1976,bazzana,44.777094,8.401557
1977,baveno,45.909105,8.502121
1978,battipaglia,40.605789,14.98324
1979,battaglia terme,45.291475,11.77838
1980,bastia,43.07133,12.547735
1981,bassano del grappa,45.766697,11.741525
1982,basiliano,46.012737,13.109233
1983,basel sbb,47.5475312,7.5892573
1984,bartolo longo,40.8473,14.3366
1985,barrali,39.484092,9.0999429
1986,barra,40.844,14.3143
1987,baronissi,40.743779,14.77224
1988,barletta scalo,41.306986,16.288677
1989,barletta centrale ferrovie nord barese,41.314831,16.278479
1990,barletta,41.315227,16.278867
1991,barile,40.943044,15.670959
1992,baricetta,45.060889,11.995348
1993,bari-la fitta,,
1994,bari zona industriale,41.1064791,16.8027311
1995,bari villaggio del lavoratore,41.104234,16.822596
1996,bari viale europa,41.13536,16.781441
1997,bari torre a mare,41.082637,16.995772
1998,bari sud est,,
1999,bari stazione palese,41.149238,16.780286
2000,bari s.spirito,41.159653,16.746324
2001,bari quintino sella,41.118099,16.862082
2002,bari parco sud,41.111822,16.914736
2003,bari palese macchie,41.151583,16.766902
2004,bari francesco crispi,41.120257,16.846399
2005,bari fesca san girolamo,41.129874,16.823653
2006,bari fermata tesoro,41.12979,16.802156
2007,bari fermata san gabriele,41.124032,16.785278
2008,bari fermata ospedale san paolo,41.11725,16.78012
2009,bari fermata macchie,41.14796,16.76898
2010,bari fermata cittadella,41.126783,16.792774
2011,bari fermata cecilia,41.116506,16.786331
2012,bari centrale ferrovie nord barese,41.118357,16.86919
2013,bari centrale,41.11774,16.869601
2014,bari ceglie-carbonara,,
2015,bari brigata bari,41.118101,16.851882
2016,bari aeroporto karol wojtyla,41.132425,16.765859
2017,barga gallicano,44.068114,10.451938
2018,bardonecchia,45.076447,6.709959
2019,barco,,
2020,barcellona,38.14918,15.212499
2021,barbiano,44.387263,11.878086
2022,barbianello,45.07263,9.204165
2023,barberino val d`elsa,43.4992428,11.1112393
2024,baragiano,40.695213,15.569206
2025,bandito,44.722075,7.819452
2026,balzola,45.173985,8.402174
2027,balvano-ricigliano,40.649993,15.495304
2028,balsorano,41.809427,13.556546
2029,balestrate,38.053364,13.007374
2030,balerna s b b,,
2031,baldichieri,44.899204,8.091198
2032,baiano di spoleto,42.726238,12.663615
2033,baiano,40.9529,14.617
2034,bagnolo mella,45.428532,10.183617
2035,baranello,41.5176,14.596314
2036,bagnolo del salento,,
2037,bagnoli agnano terme,40.819444,14.166694
2038,bagnoli,40.815,14.1668
2039,bagni di tivoli,41.949593,12.722208
2040,bagni di lucca,44.003447,10.551631
2041,bagnara,38.282695,15.800327
2042,bagnaia,42.427595,12.153373
2043,bagnacavallo,44.412138,11.969398
2044,balangero,45.2652,7.51953
2045,bagheria,38.089905,13.507215
2046,badolato,38.572268,16.567646
2047,badia polesine,45.094439,11.484722
2048,bagnaria arsa,45.885513,13.282026
2049,badesse,,
2050,baciano,43.5968187,11.8713712
2051,s. m. di pisa,40.742142,8.545311
2052,s. giuliano piacentino,45.070627,9.985919
2053,s. giuliano milanese,45.391226,9.286418
2054,s. giovanni in croce,45.075783,10.377527
2055,s. giacomo di teglio,46.159722,10.027405
2056,s. germano vercellese,45.353603,8.249958
2057,s. eurosia,41.675927,12.755105
2058,s. dona` di piave,45.63983,12.559791
2059,suzzara,44.994432,10.756138
2060,tusa,38.007989,14.256693
2061,urbisaglia sforzacosta,43.25746,13.416932
2062,voltana,44.540369,11.93605
2063,woergl,47.4917086,12.0609984
2064,zoo - edenlandia,,
2065,zollino,,
2066,zoagli,44.33546,9.269126
2067,zinasco nuovo,45.124555,8.999657
2068,zappulla,38.116962,14.703086
2069,zambrone,38.712738,15.976204
2070,zambra,43.825856,11.206206
2071,volterra saline - pomarance,43.35962,10.808269
2072,zambana,,
2073,zagarolo,41.821927,12.82692
2074,volla,40.8882,14.3297
2075,vogogna ossola,46.005883,8.294664
2076,zerbinate,44.9510336,11.3683336
2077,voghera,44.9978,9.007942
2078,vizzini,37.182566,14.729457
2079,vittuone arluno,45.491054,8.947299
2080,vittorio veneto,45.989946,12.29327
2081,vittoria,36.958721,14.52499
2082,vitorchiano,42.4415,12.17643
2083,viterbo porta romana,42.411974,12.110482
2084,viterbo porta fiorentina,42.425237,12.106204
2085,viterbo,42.424493,12.107767
2086,visone,44.661951,8.500198
2087,visano,45.31531,10.363098
2088,vipiteno/sterzing,46.895732,11.440206
2089,vilpiano-nalles/vilpian-nals,46.554251,11.220143
2090,villetta s.romano,44.146764,10.367565
2091,villetta malagnino,45.137019,10.111943
2092,villetta,41.738237,12.649463
2093,villazzano,46.045911,11.13906
2094,villaverla montecchio,45.656998,11.524271
2095,villastellone,44.920531,7.749572
2096,villaspeciosa uta,39.304168,8.940501
2097,villasor,39.381451,8.935907
2098,villasanta,45.603434,9.304923
2099,villarosa,37.567205,14.200464
2100,villanova di reggiolo,44.915925,10.842455
2101,villanova d`ardenghi,45.156982,9.037176
2102,villanova d`arda,45.028291,9.993291
2103,vinchiaturo,41.49385,14.59801
2104,villanova,44.963159,7.947136
2105,villamassargia domusnovas,39.294811,8.641986
2106,villamaggiore,45.32045,9.190674
2107,villalunga,,
2108,villalba,37.668526,13.885155
2109,villafranca tirrena,38.233517,15.42892
2110,villafranca di verona,45.349801,10.849016
2111,villafranca cantarana,44.908916,8.043692
2112,villafranca - bagnone,44.294399,9.948096
2113,villadossola,46.064151,8.264675
2114,villanova-grosso,45.2485,7.55617
2115,villabassa - braies/niederdorf - prags,46.7366585,12.167119
2116,villabartolomea,45.153057,11.348728
2117,villa visconti,40.8555,14.3384
2118,villa san sebastiano,42.049331,13.308271
2119,villa san giovanni,38.216638,15.634336
2120,villa regina,40.7572,14.4704
2121,villa raverio,45.690418,9.261549
2122,villa ortensia,41.2259993,14.3567844
2123,villa literno,41.004956,14.06753
2124,villa di tirano,46.196164,10.13033
2125,villa di giarre,,
2126,villa delle ginestre,40.7722,14.4084
2127,villa del conte,45.607701,11.852518
2128,villa claudia,41.484326,12.61709
2129,villa bonelli,41.8477601,12.455223
2130,villa augustea,40.8733,14.4263
2131,vigonza pianiga,45.442799,12.017977
2132,vigodarzere,45.453289,11.891641
2133,vignate,45.493946,9.374083
2134,villa pitignano,,
2135,vignanello,42.382587,12.27639
2136,vignale riotorto,42.967587,10.667255
2137,vignale,45.478989,8.613132
2138,vigna di valle,42.076863,12.210716
2139,vigna clara,41.94936,12.4687813
2140,vigliano d`asti,44.827335,8.218271
2141,vigevano,45.312712,8.861977
2142,vietri sul mare,40.674996,14.726829
2143,vidalengo,45.517854,9.639676
2144,vicomorasso,,
2145,vicoforte san michele,44.37404,7.894687
2146,vicofertile,44.778436,10.25834
2147,vico equense,40.6629,14.43
2148,vicenza,45.541102,11.540762
2149,vicchio,43.933463,11.457634
2150,vibo valenzia pizzo,38.714593,16.139887
2151,vibo marina,38.713731,16.120199
2152,viareggio,43.865947,10.257886
2153,viale italia,40.71785,8.555056
2154,viadana bresciana,45.373648,10.331792
2155,via viuli,40.7638,14.4283
2156,via vittorio veneto,40.9195,14.4423
2157,vicovaro,42.010183,12.888294
2158,via sant'antonio,,
2159,via nocera,40.7012,14.491
2160,via gianturco,40.8459,14.2873
2161,via del monte,40.7782,14.3924
2162,via dei monaci,40.7757,14.4002
2163,vicarello,,
2164,via cangiani,40.7853,14.5377
2165,vezzano ligure,44.127081,9.88928
2166,vetralla,42.304619,12.089137
2167,vesuvio de meis,,
2168,vespri,38.101996,13.362701
2169,vespolate,45.351517,8.671947
2170,vesalio,39.241566,9.1370151
2171,verres,45.659822,7.690012
2172,verona porta vescovo,45.435552,11.018841
2173,verona porta nuova,45.428603,10.982377
2174,verolengo,45.193107,7.969511
2175,verolanuova,45.324989,10.08388
2176,vernio montepiano cantagallo,44.043991,11.152342
2177,vernazza,44.134963,9.684804
2178,vernante,44.244639,7.535986
2179,vergiate,45.717119,8.693187
2180,vergato,44.282723,11.114386
2181,verdello dalmine,45.605715,9.619797
2182,vercurago s.girolamo,45.812122,9.422349
2183,vercelli,45.329909,8.416028
2184,verceia,46.202832,9.458412
2185,verbania-pallanza,45.943821,8.47224
2186,venzone,46.331883,13.13549
2187,ventimiglia,43.792561,7.610224
2188,venezia santa lucia,45.441569,12.320882
2189,venezia porto marghera,45.472381,12.256536
2190,venezia mestre ospedale,45.5133182,12.2257619
2191,venezia mestre,45.482123,12.232069
2192,venezia carpenedo,45.506697,12.247609
2193,venafro,41.482975,14.048722
2194,velletri,41.682421,12.780864
2195,veggia,,
2196,vasto s.salvo,42.079832,14.739483
2197,varignana,44.436796,11.523078
2198,varese,45.8161363,8.8331172
2199,varenna esino,46.015,9.286405
2200,venosa - maschito,40.979136,15.846171
2201,varazze,44.356842,8.566682
2202,varano,43.574729,13.523436
2203,varallo pombia,45.670032,8.620047
2204,vaprio d`agogna,45.599085,8.536862
2205,vanzago pogliano,45.525216,8.995531
2206,venaria reale,45.1325,7.63478
2207,vandoies/vintl,46.814822,11.723079
2208,valmontone,41.774291,12.923696
2209,valmadrera,45.846439,9.368183
2210,valmadonna,44.972588,8.610667
2211,vallo della lucania castelnuovo,40.233316,15.266511
2212,vallerano,42.384092,12.270042
2213,valleombrosa,,
2214,vallelunga,37.691542,13.846428
2215,valledolmo,37.709073,13.756029
2216,vallecrosia,43.787619,7.634997
2217,valle lomellina,45.150588,8.685874
2218,valle di mercato s.severino,40.776365,14.722362
2219,valle di maddaloni,41.087558,14.426049
2220,valle aurelia,41.899356,12.447667
2221,valenzano lamie,,
2222,valenzano,,
2223,valenza,45.023527,8.625808
2224,valdaora - anterselva/olang - antholz,46.76599,12.03147
2225,valcorrente,,
2226,valcesura,44.7828212,11.9530498
2227,vairano,41.317446,14.104022
2228,vaio ospedale,44.849778,10.038006
2229,vaiano,43.961772,11.130773
2230,vaglia,43.924442,11.284576
2231,vada,43.352641,10.470376
2232,uras mogoro,39.692629,8.696459
2233,ugovizza valbruna,46.502902,13.494972
2234,ugento-taurisano,,
2235,turi,,
2236,tuoro sul trasimeno,43.196631,12.0796
2237,tuglie,,
2238,tufara valle,41.0616538,14.7059931
2239,tropea,38.672302,15.894568
2240,tronzano,45.342929,8.168395
2241,tromello,45.211988,8.872154
2242,trofarello,44.980471,7.735206
2243,trivigno,40.588598,15.997824
2244,triuggio-ponte albiate,45.658956,9.266961
2245,umbertide,,
2246,trino vercellese,45.190066,8.294093
2247,trinitapoli s.ferdinando di puglia,41.349677,16.090839
2248,trinita` bene vagienna,44.504656,7.752647
2249,triflisco,41.13547,14.25817
2250,trieste aeroporto,45.8174257,13.4840233
2251,tricesimo - san pelagio,46.1592621,13.2347484
2252,tufo,41.013853,14.815962
2253,tricase,,
2254,trezzano sul naviglio,45.422203,9.071196
2255,trevignano signoressa,45.74789,12.103123
2256,treviglio ovest,45.521762,9.580281
2257,treviglio,45.515063,9.587919
2258,trevi,42.8762,12.733709
2259,tresigallo-correggi,44.7803484,11.8403309
2260,tresenda-aprica-teglio,46.162082,10.083754
2261,trepuzzi,40.40964,18.076902
2262,trento nord-zona commerciale,46.090129,11.113035
2263,trento ftm,,
2264,trento,46.072414,11.118941
2265,trensasco,,
2266,tremestieri,38.150323,15.535528
2267,trecella,45.512792,9.480674
2268,trecate,45.428589,8.739561
2269,trecase,40.7618,14.4396
2270,trebisacce,39.865561,16.532173
2271,trebaseleghe,45.581509,12.040046
2272,tre croci,42.331525,12.086159
2273,trestina,,
2274,travedona biandronno,45.809601,8.696322
2275,trappeto,38.065089,13.036873
2276,trapani,38.017092,12.518814
2277,trani,41.272693,16.417646
2278,trabia,37.996408,13.65567
2279,tozzaga,,
2280,tortoreto lido,42.804562,13.939012
2281,tortona,44.900126,8.861777
2282,torrita di siena,43.174187,11.78758
2283,torrile s. polo,44.885677,10.362814
2284,torricola,41.809538,12.557716
2285,torregrotta,38.2112,15.34813
2286,travesio,46.187141,12.876921
2287,torregaveta,40.8115,14.045
2288,torreberetti,45.060533,8.660431
2289,torre orsaia,40.099017,15.481204
2290,torre melissa,39.304391,17.108402
2291,torre in pietra-palidoro,41.92432,12.183116
2292,torre del lago puccini,43.826501,10.290287
2293,torre del greco,40.7931,14.3699
2294,torviscosa,45.826002,13.282358
2295,torre del greco,40.787631,14.363159
2296,torre dei passeri,42.244022,13.937525
2297,torre de` picenardi,45.137198,10.286849
2298,torre annunziata citta',40.754069,14.448628
2299,torre annunziata centrale,40.747131,14.463744
2300,torre annunziata - oplonti,,
2301,torrazza piemonte,45.211855,7.970255
2302,torrazza,,
2303,torino stura,45.121932,7.713202
2304,torino porta susa sotterranea,45.816201,8.833089
2305,torino porta nuova,45.060969,7.67747
2306,torino lingotto,45.0266,7.657469
2307,torano lattarico,39.49455,16.210509
2308,tora presenzano,41.358861,14.04514
2309,tor vergata,41.823224,12.666162
2310,tor sapienza,41.907095,12.594489
2311,tor di quinto,41.950232,12.4902
2312,tommaso natale,38.190283,13.28819
2313,tollo canosa sannita,42.394208,14.339984
2314,tolentino,43.214556,13.290501
2315,tivoli,41.961849,12.805047
2316,tito,40.607321,15.698194
2317,tirso,40.3204424,9.0058264
2318,tirano,46.21539,10.166961
2319,tiera,40.697817,15.819279
2320,torino porta susa,45.075906,7.667673
2321,thun,46.754856,7.629576
2322,thiene,45.700697,11.475407
2323,tezze di grigno,45.990485,11.669726
2324,terzolas,,
2325,terzo montabone,44.671932,8.428705
2326,terzigno,40.8142,14.4973
2327,terrenove,37.748755,12.480604
2328,terontola cortona,43.210263,12.007906
2329,terno,45.688658,9.536169
2330,terni,42.570768,12.651091
2331,ternate varano borghi,45.781835,8.700371
2332,termoli,42.000623,14.992805
2333,termini imerese,37.980132,13.703631
2334,terme vigliatore,38.133588,15.164396
2335,terme euganee-abano-montegrotto,45.32744,11.79604
2336,terlizzi centrale,41.126605,16.548579
2337,terlano-andriano/terlan-andrian,46.528517,11.248394
2338,teramo,42.660551,13.715882
2339,tenero,,
2340,telese cerreto,41.211709,14.526165
2341,terracina,41.29697,13.244055
2342,teglio veneto,45.809887,12.858938
2343,teano,41.231804,14.077075
2344,taviano,,
2345,tavazzano,45.32629,9.402748
2346,tassullo,,
2347,tassignano,43.834131,10.570495
2348,tarquinia,42.239463,11.727009
2349,tarcento,46.209134,13.196211
2350,taranto galese,,
2351,tel ponte,,
2352,taranto,40.483727,17.224059
2353,taormina,37.845429,15.282584
2354,talona,40.9102,14.3654
2355,talamone,42.56461,11.164524
2356,talamona,46.13952,9.599528
2357,taio,,
2358,tagliata,,
2359,tagliacozzo,42.070701,13.255664
2360,taggia arma,43.840764,7.835604
2361,tarvisio città,,
2362,susegana,45.821054,12.258364
2363,susa,45.138622,7.052311
2364,suno,45.620435,8.519344
2365,sulmona,42.060836,13.907156
2366,suelli,39.5588288,9.1321429
2367,su canale,40.838375,9.404226
2368,strongoli,39.228139,17.108256
2369,strigno,46.051003,11.514327
2370,striano,40.8119,14.577
2371,strevi,44.697771,8.525525
2372,taino angera,45.772269,8.60599
2373,stresa,45.884486,8.531454
2374,strambino,45.382508,7.887955
2375,stradella,45.079465,9.300865
2376,strada casale,44.183511,11.697496
2377,stimigliano,42.289811,12.568632
2378,sticciano,42.929333,11.118621
2379,stezzano,45.64902,9.6401
2380,sternatia,,
2381,stazione per l`alpago,46.137574,12.316066
2382,stazione f.s.,40.729309,8.5548128
2383,statte,,
2384,stanghella,45.13209,11.749094
2385,stabio,,
2386,st jean de maurienne arvan,45.27756,6.35471
2387,squinzano,40.439266,18.046097
2388,spresiano,45.77763,12.266984
2389,spotorno noli,44.226528,8.410932
2390,spongano,,
2391,spondigna-prato venosta,46.634571,10.60999
2392,spoleto,42.748121,12.736142
2393,spini-zona industriale,46.118739,11.104862
2394,spinetta,44.882378,8.683146
2395,spinetoli villa s.pio x,42.878174,13.7929874
2396,spinetoli colli,42.87032,13.762811
2397,spinea,45.49013,12.17618
2398,spinazzola,40.953396,16.087173
2399,spigno,44.539437,8.317924
2400,spiez,46.686394,7.680095
2401,spello,42.9844,12.668884
2402,sparanise,41.185707,14.092954
2403,spagnuola,37.83631,12.477051
2404,soveria manelli,,
2405,soverato,38.684339,16.549416
2406,sorso,40.796486,8.5737928
2407,sorrento,40.6258,14.3797
2408,soriano,42.42164,12.233888
2409,sori,44.369795,9.106006
2410,sorgenti del peschiera,42.36428,12.996973
2411,spinazzola città,,
2412,soresina,45.283083,9.85664
2413,sorbolo,,
2414,sora,41.716618,13.618601
2415,sondrio,46.167064,9.872928
2416,sommariva bosco,44.770754,7.777086
2417,somma vesuviana,40.8741,14.4384
2418,somma lombardo,45.686423,8.712991
2419,solopaca,41.210521,14.571413
2420,solignano,44.614024,9.98014
2421,solicchiata,,
2422,soleto,,
2423,solero,44.915886,8.51043
2424,soleminis,39.3458139,9.1763275
2425,solarussa,39.952525,8.679813
2426,solarolo,44.356425,11.849183
2427,solagna,45.815434,11.72134
2428,soffratta,45.976377,12.299346
2429,soccavo,40.8439,14.2005
2430,sluderno-glorenza,46.664329,10.581832
2431,sistiana,45.774903,13.645832
2432,siracusa,37.068906,15.280896
2433,sipicciano s.nicola,42.5464745,12.2544186
2434,solofra,40.834504,14.843975
2435,sipicciano,42.546495,12.254318
2436,solfagnano-parlesca,,
2437,sinalunga,43.216189,11.744866
2438,silvi,42.55911,14.110365
2439,silla,44.177652,10.980635
2440,siliqua,39.297005,8.813078
2441,silanus,40.2846899,8.8936413
2442,silandro,46.625613,10.766327
2443,signa,43.775441,11.095961
2444,siena,43.331708,11.322972
2445,sieci,43.790892,11.394608
2446,siderno,38.2708,16.302
2447,sicignano degli alburni,40.605454,15.290904
2448,sibari,39.749863,16.456922
2449,sgurgola,41.687018,13.146199
2450,sezze romano,41.495542,13.038452
2451,seveso,45.648187,9.140488
2452,settimo san pietro,39.28943,9.176862
2453,settimo s.p.,39.2895767,9.1768474
2454,settimo,45.139834,7.769335
2455,sette bagni,42.006438,12.520156
2456,sestri levante,44.27626,9.397651
2457,sesto s. giovanni,45.541087,9.23926
2458,sesto fiorentino,43.833297,11.191941
2459,sesto campano,41.420005,14.088909
2460,sesto calende,45.726241,8.628135
2461,sessa aurunca roccamorfina,41.1955,13.8761
2462,serri,39.693362,9.152113
2463,serravalle scrivia,44.72393,8.858548
2464,serravalle pistoiese,43.908016,10.85168
2465,serrastretta,,
2466,serramanna nuraminis,39.426123,8.916579
2467,serradifalco,37.431804,13.883299
2468,serra s.quirico,43.444879,13.027408
2469,sermide,44.99609,11.28935
2470,seriate,45.683145,9.724628
2471,serenissima,41.8999663,12.5578942
2472,seregno,45.64601,9.20285
2473,senorbi',39.5304071,9.1345675
2474,senigallia,43.716277,13.221652
2475,sella di corno,42.360461,13.189876
2476,selargius,39.26714,9.14797
2477,seiano,40.656,14.4267
2478,segrate,45.480702,9.298873
2479,segno,,
2480,sedico bribano,46.095424,12.086508
2481,secugnago,45.223253,9.58684
2482,secli'-neviano-aradeo,,
2483,scurcola marsicana,42.053136,13.344374
2484,serino,40.858838,14.860182
2485,scordia,37.294595,14.851219
2486,scorcetoli,44.34431,9.911853
2487,scopeti,43.841117,11.497001
2488,sepino,41.413946,14.657456
2489,scisciano,40.9127,14.4803
2490,scilla,38.251202,15.710886
2491,schwarzach-st veit,,
2492,schivenoglia,44.9914,11.0755
2493,schio,45.710848,11.355508
2494,scerne di pineto,42.642427,14.041324
2495,scarlino,42.942002,10.836798
2496,scandiano,,
2497,scaletta zanclea,38.04635,15.465376
2498,scalea s.domenica talao,39.8083,15.80139
2499,scafati,40.7536,14.5244
2500,scafati,40.746028,14.523253
2501,scafa s.valentino caramanico t,42.26717,13.99909
2502,saxa rubra,41.974497,12.493123
2503,savona,44.306892,8.470259
2504,savignano sul rubicone,44.095191,12.40421
2505,savigliano,44.651337,7.663748
2506,saviano,40.9122,14.5093
2507,sassuolo radici,,
2508,sassone,41.783777,12.625832
2509,sassoferrato arcevia,43.435381,12.851514
2510,sasso marconi,44.394939,11.254333
2511,sassari s.m.b.,40.725692,8.55094
2512,sassari,40.7296321,8.5542777
2513,sassari,40.729506,8.554157
2514,sassa tornimparte,42.360549,13.295333
2515,sarzana,44.108865,9.960657
2516,sartirana,45.111728,8.67012
2517,savignano greci,41.230587,15.167109
2518,saronno,45.625309,9.030839
2519,sarno,40.8122,14.6185
2520,sarno,40.813063,14.612442
2521,sarmato,45.063043,9.491116
2522,sardorella,,
2523,sapri,40.078013,15.627204
2524,santuario,44.34607,8.435756
2525,santopadre,41.6268,13.5932
2526,santo stefano di camastra,38.01778,14.35104
2527,santo stefano,,
2528,sassano teggiano,40.368687,15.604818
2529,santhia`,45.363726,8.180093
2530,sante marie,42.096993,13.21696
2531,santa venera,,
2532,santa teresa di riva,37.946295,15.367682
2533,santa severa,42.020645,11.969077
2534,santa marinella,42.035892,11.863122
2535,santa maria di pisa,40.742092,8.5453588
2536,santa maria del pozzo,,
2537,santa maria a vico,41.02828,14.46281
2538,santa maria,,
2539,santa margherita,,
2540,santa lucia,,
2541,santa domenica,38.663764,15.859822
2542,sant'oreste,42.224518,12.489283
2543,sant'olcese tullo,,
2544,santeramo,40.8026,16.76403
2545,sant'olcese chiesa,,
2546,sant'antonino,,
2547,sant'anna,40.72329,8.554021
2548,sant'anastasia,,
2549,sant'agnello,,
2550,sannicola,,
2551,sannazzaro,45.10554,8.905149
2552,sanguinetto,45.188811,11.152467
2553,sangone,45.0003578,7.6679663
2554,santa mama,43.6280379,11.8538832
2555,sangiano,45.874464,8.630769
2556,sanfre`,44.74799,7.796793
2557,sanarica,,
2558,san valentino torio,,
2559,san trovaso,45.6259579,12.232723
2560,san severo,41.684512,15.392567
2561,san remo,43.821269,7.766693
2562,san polo,,
2563,san pietro apostolo,,
2564,sansecondo,,
2565,san pietro,,
2566,san paolo (fse),,
2567,san pantaleo,,
2568,san nicandro garganico,,
2569,san momme`,44.027999,10.914798
2570,san martino valle caudina-montesarchio-pannarano,41.0369922,14.6538081
2571,san leonardo,,
2572,san lazzaro di savena,44.4788643,11.4163751
2573,san giuseppe di cairo,44.370096,8.28864
2574,san giuseppe,,
2575,san giovanni in persiceto,44.643151,11.189444
2576,san giovanni a teduccio,,
2577,san giovanni,40.762523,8.499282
2578,san giorgio di nogaro,45.82917,13.210315
2579,san giorgio cavalli di bronzo - villa bruno,,
2580,san giorgio a cremano,,
2581,san maurizio canavese,45.21634,7.63077
2582,san giorgio,40.6901903,8.4705713
2583,san giorgio,38.173967,14.94414
2584,san giacomo,44.687745,8.663185
2585,san gennaro,41.674568,12.7262473
2586,san gavino,39.546206,8.788017
2587,san felice a cancello - arienzo,41.01374,14.47809
2588,san candido/innichen,46.732728,12.271917
2589,san bonifacio,45.40276,11.27406
2590,san bernardo,,
2591,san bartolameo,46.0539,11.1358
2592,samolaco,46.246436,9.423582
2593,samoggia,44.567307,11.146221
2594,sammichele,,
2595,samassi serrenti,39.483075,8.899035
2596,salzburg hbf,47.8129351,13.0457912
2597,salzano robegano,45.535378,12.111485
2598,salve-ruggiano,,
2599,salussola,45.44438,8.115195
2600,saluggia,45.23443,8.017112
2601,salsomaggiore terme,44.81866,9.988129
2602,salorno/salurn,46.245842,11.202681
2603,salone,41.915253,12.636215
2604,saline di reggio,37.938677,15.710664
2605,saliceto,44.404437,8.172887
2606,salice,40.8996,14.3377
2607,saletto,45.22274,11.535093
2608,salerno irno,40.6828733,14.7759409
2609,salerno,40.675137,14.772822
2610,salemi gibellina,37.806619,12.865517
2611,sale langhe,44.392425,8.077468
2612,salbertrand,45.073478,6.887428
2613,salandra,40.583446,16.351564
2614,sala al barro-galbiate,45.821086,9.359223
2615,sairano zinasco,45.133795,9.030153
2616,sairano,45.138858,9.046868
2617,sagrado,45.872629,13.484004
2618,sacrofano,42.05493,12.488048
2619,sacile san liberale,45.959155,12.514778
2620,sacile,45.948413,12.498498
2621,s.vittoria,44.69561,7.916909
2622,s.vito lanciano,42.307401,14.448093
2623,s.vito al tagliamento,45.912433,12.851594
2624,s.vincenzo valle roveto,41.832988,13.526148
2625,s.stefano lodigiano,45.122091,9.723606
2626,s.stefano di magra,44.156857,9.915202
2627,s.severino marche,43.22996,13.183491
2628,s.romano montopoli s.croce,43.690575,10.760152
2629,sala consilina,40.405144,15.576057
2630,s.pietro in gu`,45.605039,11.673157
2631,s.pietro in casale,44.697928,11.404763
2632,s.piero a sieve,43.958317,11.322742
2633,s.patrizio,44.49018,11.82587
2634,s.nicolo,45.058843,9.606443
2635,s.nicola tonnara,38.015817,13.612755
2636,s.nazario,45.838117,11.691321
2637,s.miniato fucecchio,43.701383,10.831605
2638,s.michele in bosco,45.122404,10.57329
2639,s.martino in gattara,44.113211,11.667077
2640,s.martino di lupari,45.655928,11.857227
2641,s.martino buon albergo,45.421559,11.089155
2642,s.marino,45.897699,11.692241
2643,s.rocco mantovano,44.9971,11.0175
2644,s.maria la bruna,40.755435,14.407647
2645,s.maria capua vetere,41.07353,14.254081
2646,s.marco roggiano,39.605223,16.208776
2647,s.marcellino frignano,40.992103,14.171976
2648,s.lorenzo maggiore,41.219748,14.648419
2649,s.lorenzo colli,38.16292,13.316449
2650,s.liberato,42.478853,12.443006
2651,s.ilario d`enza,44.765795,10.450469
2652,s.gottardo,,
2653,s.giustina cesio,46.077655,12.04294
2654,s.giuliano terme,43.764895,10.436892
2655,s.giuliano piemonte,44.890543,8.760933
2656,s.giuletta,45.035719,9.179239
2657,s.maria oliveto,41.507208,14.096049
2658,s.giovanni valdarno,43.56601,11.527033
2659,s.giovanni di casarsa,45.943448,12.837255
2660,s.giovanni al natisone,45.976122,13.397437
2661,s.giorgio di piano,44.646641,11.37901
2662,s.giorgio delle pertiche,45.542538,11.917455
2663,s.luce,,
2664,s.frediano a settimo,43.680508,10.517254
2665,s.flavia,38.0826,13.530625
2666,s.filippo,42.849787,13.599949
2667,s.felice sul panaro,44.834527,11.140243
2668,s.ellero,43.742143,11.469621
2669,s.elena - este,45.199209,11.712883
2670,s.donnino badia,43.785424,11.142169
2671,s.donato di lecce,,
2672,s.demetrio de` vestini,42.294447,13.536543
2673,s.croce del lago,46.094795,12.324068
2674,s.cristoforo al lago-ischia,46.039743,11.23375
2675,s.claudio,43.287357,13.532751
2676,s.chiara,46.05533,11.11758
2677,s.caterina dell`jonio,38.530452,16.571093
2678,s.cassiano,44.143684,11.687503
2679,s.biagio di callalta,45.686134,12.374316
2680,s.biagio,44.594511,11.87054
2681,s.bernardo,,
2682,s.benedetto val di sambro - castiglione dei pepoli,44.22866,11.19226
2683,s.benedetto del tronto,42.954386,13.882297
2684,s.arcangelo di romagna,44.070316,12.45454
2685,s.antonio mantovano,45.187447,10.785806
2686,s.antimo s.arpino,40.949188,14.247415
2687,s.anna di chioggia,45.1448755,12.266509
2688,s.angelo in formis,41.12023,14.24842
2689,s.alessio siculo forza d`agro`,37.923992,15.347322
2690,s.agata sul santerno,44.436774,11.858855
2691,s.agata militello,38.073554,14.640622
2692,s. zenone al lambro,45.337824,9.36126
2693,s. zeno folzano,45.491552,10.211683
2694,s. vitaliano,40.9183,14.4733
2695,s. vincenzo,43.100366,10.539823
2696,s. stino di livenza,45.721088,12.682769
2697,s. stefano,,
2698,s. pietro vernotico,40.48902,18.000716
2699,s. pietro berbenno,46.161347,9.740491
2700,s. pietro a vico,43.875094,10.530945
2701,s. paolo solbrito,44.951753,7.975779
2702,s. maria delle mole,41.774417,12.606225
2703,s. margherita ligure portofino,44.33676,9.216673
2704,s. damiano d`asti,44.878914,8.125956
2705,s. cristina e bissone,45.160533,9.401006
2706,s. cassiano valchiavenna,46.275438,9.397419
2707,s. antonino vaie,45.109469,7.275931
2708,s. antonino di saluggia,45.253967,8.039728
2709,s. ambrogio,45.101161,7.360933
2710,s. nicola di melfi,41.073281,15.677602
